start_station_name,lat,lng,member_casual,count,cum_percent
Streeter Dr & Grand Ave,41.89227209064213,-87.61207218553349,casual,54537,3.1311989408225966
DuSable Lake Shore Dr & Monroe St,41.88098460745321,-87.61675514621518,casual,29975,4.85218997903807
Millennium Park,41.88107421712155,-87.62408730229619,casual,23735,6.214916327396512
Michigan Ave & Oak St,41.900969661349755,-87.6237626521478,casual,23545,7.566733975262512
DuSable Lake Shore Dr & North Blvd,41.91169919301371,-87.62683553489774,casual,21953,8.827148195844474
Shedd Aquarium,41.867238998719095,-87.61536763943383,casual,19252,9.93248662679441
Theater on the Lake,41.92626556367006,-87.63088515510833,casual,17215,10.920872305622746
Wells St & Concord Ln,41.912093964613135,-87.63472775665716,casual,14721,11.766066936934507
Dusable Harbor,41.88697298913122,-87.61282817610875,casual,13168,12.522097295273834
Clark St & Armitage Ave,41.91830869035416,-87.63630598658463,casual,12678,13.249994689185288
Indiana Ave & Roosevelt Rd,41.86790530965204,-87.6230403679217,casual,12645,13.97599741406384
Clark St & Lincoln Ave,41.91570770511902,-87.63460874804487,casual,12393,14.68753175723663
Clark St & Elm St,41.90292046551777,-87.63144041968093,casual,11878,15.369497780653592
Montrose Harbor,41.96397297314767,-87.63818614128584,casual,11580,16.034354368561353
Wells St & Elm St,41.90317665253666,-87.63443906950918,casual,11389,16.68824484176356
Adler Planetarium,41.86611568011135,-87.6072924629272,casual,10867,17.312165095718104
Clark St & Newport St,41.944525171164095,-87.65471286222201,casual,10738,17.928678916180417
Wabash Ave & Grand Ave,41.89144004245866,-87.62674642520038,casual,10705,18.54329806760983
Michigan Ave & 8th St,41.87270730828545,-87.62398994264319,casual,10650,19.154759437317743
Broadway & Barry Ave,41.93761747505163,-87.64410092142019,casual,10555,19.76076645677944
Michigan Ave & Washington St,41.88396384647304,-87.62456418224338,casual,10346,20.354773905699453
Wilton Ave & Belmont Ave,41.940174092972214,-87.65300036380587,casual,10292,20.945680987111086
LaSalle St & Illinois St,41.89078373164389,-87.63168263362385,casual,9879,21.512875998504935
New St & Illinois St,41.89079293086965,-87.6185164245074,casual,9866,22.07932462512825
DuSable Lake Shore Dr & Diversey Pkwy,41.932584812547006,-87.6364327286304,casual,9521,22.625965348225815
Clark St & Wrightwood Ave,41.929561152383464,-87.64314560749736,casual,9482,23.170366917011773
Larrabee St & Webster Ave,41.92182716564605,-87.6441096715145,casual,9442,23.71247191727301
DuSable Lake Shore Dr & Belmont Ave,41.94075284865533,-87.63918973064291,casual,9348,24.24917998150114
Lakeview Ave & Fullerton Pkwy,41.9258533090916,-87.63897245767696,casual,9225,24.778826097515743
Michigan Ave & Lake St,41.885987703971026,-87.62425068472066,casual,9111,25.301926993234886
McClurg Ct & Ohio St,41.89260285898955,-87.61729853037428,casual,8897,25.812741247346743
Sheffield Ave & Waveland Ave,41.94931514731853,-87.65448966819544,casual,8872,26.322120146130658
Wells St & Evergreen Ave,41.906711665694175,-87.63495323635145,casual,8809,26.827881949488123
Wells St & Huron St,41.89474699573053,-87.63439016857532,casual,8795,27.33283995386194
Dearborn St & Erie St,41.894036954846186,-87.62931902347704,casual,8582,27.825568730841592
Halsted St & Roscoe St,41.943656108532316,-87.6489514456275,casual,8510,28.314163684476746
DuSable Lake Shore Dr & Wellington Ave,41.93668073915888,-87.63683658537983,casual,8346,28.79334270716053
Clark St & Drummond Pl,41.93125046847871,-87.64430642919204,casual,8243,29.266608065893145
Damen Ave & Pierce Ave,41.90939735635422,-87.67769763067649,casual,8204,29.737634270314157
Kingsbury St & Kinzie St,41.88916355847975,-87.63851893151153,casual,8025,30.19838333058702
Ashland Ave & Division St,41.90340617106157,-87.66782405117023,casual,8007,30.65809893502376
Sheffield Ave & Fullerton Ave,41.92559726688595,-87.65370855220037,casual,7935,31.113680716116
Wells St & Hubbard St,41.88995045780414,-87.63428005332408,casual,7924,31.568630940863933
Lincoln Ave & Fullerton Ave,41.92416483884708,-87.64637918254782,casual,7893,32.021801325005214
Wabash Ave & Roosevelt Rd,41.86721305383325,-87.62599854797998,casual,7688,32.46320179545727
St. Clair St & Erie St,41.894318627670486,-87.62278999274467,casual,7684,32.904372609056864
Halsted St & Wrightwood Ave,41.92913915284594,-87.64910943650595,casual,7653,33.34376358204979
Southport Ave & Roscoe St,41.943707032928394,-87.66400962655845,casual,7639,33.78235075605907
Michigan Ave & Jackson Blvd,41.87784489684591,-87.62408788547351,casual,7476,34.21157941333009
Fairbanks Ct & Grand Ave,41.89189914604702,-87.62063786993613,casual,7359,34.63409060766629
Broadway & Cornelia Ave,41.94551915832336,-87.64647875746053,casual,7348,35.055970245658195
Sheffield Ave & Wrightwood Ave,41.92869988630384,-87.65382314204211,casual,7267,35.47319933238753
Green St & Madison St,41.88187634308891,-87.64881826346875,casual,7187,35.88583528206742
Southport Ave & Waveland Ave,41.94812526908926,-87.6639812277455,casual,7159,36.29686363378
Broadway & Waveland Ave,41.949064170053106,-87.64862067380939,casual,7156,36.70771974285322
Clark St & Schiller St,41.90800275460606,-87.63153011671037,casual,7095,37.11507358492624
State St & Randolph St,41.884610363610484,-87.62788464127904,casual,7060,37.52041792954013
Dearborn Pkwy & Delaware Pl,41.89895211416857,-87.62990242185857,casual,7000,37.92231742136693
Lincoln Park Conservatory,41.92396741048561,-87.63584098348211,casual,6878,38.317212379193315
Field Museum,41.865325960069285,-87.61793672146227,casual,6784,38.7067104009866
Pine Grove Ave & Waveland Ave,41.9494194449661,-87.64645796231427,casual,6784,39.096208422779895
Halsted St & Clybourn Ave,41.90964579878448,-87.64812484335152,casual,6779,39.48541937350759
Clinton St & Madison St,41.88224582348061,-87.64112602630748,casual,6654,39.867453547595524
Sheffield Ave & Wellington Ave,41.93627787844338,-87.65265623723266,casual,6649,40.24920065061786
Rush St & Cedar St,41.902355301103334,-87.62777377743723,casual,6571,40.626469445016994
Columbus Dr & Randolph St,41.884658794855405,-87.61953234731811,casual,6570,41.003680825203006
Clark St & Wellington Ave,41.9365011038692,-87.64756130187958,casual,6544,41.379399435847944
State St & Chicago Ave,41.89664675288882,-87.62861337942255,casual,6494,41.75224733583698
Sheffield Ave & Webster Ave,41.92161818650301,-87.6538117324888,casual,6477,42.124119194203004
Wabash Ave & Wacker Pl,41.88686320769375,-87.62608054037813,casual,6400,42.49157015815893
Broadway & Belmont Ave,41.94009426500322,-87.64547688138308,casual,6218,42.84857173532737
Wilton Ave & Diversey Pkwy,41.932414791415916,-87.65270285620007,casual,6208,43.20499917036462
Halsted St & Dickens Ave,41.91989544208313,-87.64885015740094,casual,6183,43.55999125007392
Sedgwick St & North Ave,41.91137434159526,-87.63869028936871,casual,6162,43.913777631307745
Racine Ave & Belmont Ave,41.93971505890933,-87.6588663428211,casual,6143,44.266473142492316
Federal St & Polk St,41.87209253024534,-87.62956936075891,casual,6114,44.61750364149646
Sheridan Rd & Irving Park Rd,41.95423285438401,-87.65442004709207,casual,6104,44.96795999836944
Stockton Dr & Wrightwood Ave,41.9313202562659,-87.63873218416845,casual,6055,45.31560305879962
Mies van der Rohe Way & Chestnut St,41.89857796064591,-87.62211609526334,casual,6038,45.66227007760679
Desplaines St & Kinzie St,41.88861147819048,-87.64448266001021,casual,5880,45.999865650741306
Canal St & Adams St,41.87933943853482,-87.63997096405846,casual,5815,46.33372930002314
Franklin St & Jackson Blvd,41.877747262888775,-87.63528527533472,casual,5781,46.66564086605896
Wabash Ave & 9th St,41.870736792780185,-87.6257408376979,casual,5773,46.997093118389834
Lakefront Trail & Bryn Mawr Ave,41.98403453435532,-87.65229920939274,casual,5747,47.32705260117963
Clark St & North Ave,41.911966941066574,-87.63198448554199,casual,5738,47.65649535605137
Buckingham Fountain,41.87646964474475,-87.62040717405594,casual,5720,47.984904655086986
Clark St & Grace St,41.95081829330811,-87.65918046224881,casual,5683,48.31118962823723
Kedzie Ave & Milwaukee Ave,41.929565483614326,-87.70790312963464,casual,5611,48.633340778042964
Cityfront Plaza Dr & Pioneer Ct,41.89053415309498,-87.62206272649746,casual,5496,48.94888929334012
Field Blvd & South Water St,41.886234923842764,-87.61750810100845,casual,5444,49.261452269555136
Milwaukee Ave & Grand Ave,41.89159185108976,-87.64832887041798,casual,5359,49.56913503765511
State St & Kinzie St,41.889149514132804,-87.6272373702389,casual,5316,49.874348994591
Clinton St & Washington Blvd,41.88336380628712,-87.6412423545489,casual,5287,50.17789793934647
Clark St & Lake St,41.88595862840319,-87.63092613917125,casual,5273,50.480643085118295
Rush St & Superior St,41.895755955221205,-87.62602153574562,casual,5244,50.781723218709686
Sedgwick St & Webster Ave,41.92217287435854,-87.63891750545055,casual,5238,51.08245886702236
Mies van der Rohe Way & Chicago Ave,41.89702285384586,-87.62173133683878,casual,5229,51.38267778741699
California Ave & Milwaukee Ave,41.92269258479404,-87.6971526509031,casual,5171,51.67956668345075
Clark St & Winnemac Ave,41.97334623613266,-87.66783635912724,casual,5156,51.975594366287744
Michigan Ave & Pearson St,41.897501477862136,-87.62352392288155,casual,5150,52.27127756384604
McClurg Ct & Erie St,41.894518180691534,-87.61803120093822,casual,5148,52.56684593297809
Damen Ave & Cortland St,41.915980520657016,-87.67732555045757,casual,5114,52.86046221886412
Broadway & Sheridan Rd,41.95282094807368,-87.65000321921418,casual,5103,53.15344694840587
Dearborn St & Monroe St,41.881112699553675,-87.62964812306528,casual,5086,53.44545563632459
Pine Grove Ave & Irving Park Rd,41.95437683464961,-87.64805719632086,casual,5080,53.73711983896462
Wood St & Milwaukee Ave,41.907657100051274,-87.67255095082429,casual,5071,54.02826731368657
Southport Ave & Wrightwood Ave,41.92878308552422,-87.66389825065727,casual,5036,54.317405290949395
Lincoln Ave & Diversey Pkwy,41.93220687317432,-87.65865492778374,casual,5031,54.60625619714663
Franklin St & Chicago Ave,41.89677433081575,-87.63571831959815,casual,4977,54.89200673583549
Michigan Ave & Madison St,41.882081590530255,-87.62513753050192,casual,4941,55.17569036285208
Kingsbury St & Erie St,41.893828268362526,-87.64176280253564,casual,4910,55.45759414926202
Franklin St & Illinois St,41.890991537052095,-87.63546655489887,casual,4895,55.7386367224752
Orleans St & Merchandise Mart Plaza,41.88809914916616,-87.63666632829757,casual,4893,56.01956446726213
University Ave & 57th St,41.79147932551625,-87.59988052714783,casual,4891,56.30037738362282
Wentworth Ave & Cermak Rd,41.85312585665616,-87.63192774820835,casual,4761,56.57372645227817
LaSalle Dr & Huron St,41.894815549787545,-87.63230821647666,casual,4754,56.84667362144168
Burling St & Diversey Pkwy,41.93312117808225,-87.64775543126359,casual,4693,57.116118523604996
Ritchie Ct & Banks St,41.90684568768261,-87.6262149349167,casual,4682,57.38493186942401
Sheridan Rd & Montrose Ave,41.96162689035035,-87.6546421782867,casual,4681,57.653687801029896
Clinton St & Lake St,41.88551094009446,-87.64186699519321,casual,4658,57.92112320573407
Daley Center Plaza,41.88420237758015,-87.62961289878568,casual,4554,58.18258753227396
Greenview Ave & Fullerton Ave,41.9253692780182,-87.6658161203573,casual,4506,58.441295976584186
Peoria St & Jackson Blvd,41.87765240620513,-87.6495404055563,casual,4485,58.698798722418935
Southport Ave & Belmont Ave,41.93944515709951,-87.66377470294066,casual,4482,58.95612922561432
Southport Ave & Wellington Ave,41.93568625433557,-87.66362038760627,casual,4470,59.21277075825229
Honore St & Division St,41.90312846672061,-87.67389342231513,casual,4449,59.468206592414774
Michigan Ave & Ida B Wells Dr,41.87622907410216,-87.62443555579883,casual,4444,59.72335535551168
Bissell St & Armitage Ave*,41.918365841831715,-87.65219216786376,casual,4433,59.97787256226428
Kimbark Ave & 53rd St,41.799567143142404,-87.59474331961661,casual,4382,60.229461644147854
Burnham Harbor,41.85734781638185,-87.61377409086366,casual,4342,60.47875415750671
Shore Dr & 55th St,41.795251680845816,-87.5807912811777,casual,4339,60.7278744282262
Milwaukee Ave & Wabansia Ave,41.9126144703641,-87.6814010732166,casual,4312,60.97544451519151
Clark St & Chicago Ave,41.89671294636174,-87.63087010462503,casual,4307,61.22272753109124
Stetson Ave & South Water St,41.88672189999535,-87.62223864385973,casual,4306,61.46995313277783
Clark St & Randolph St,41.8846027451139,-87.631751846755,casual,4302,61.71694907761196
Franklin St & Lake St,41.88583818901773,-87.63550881808446,casual,4286,61.963026395036195
Green St & Randolph St*,41.883593405278425,-87.64858364809078,casual,4274,62.20841474190302
Ravenswood Ave & Lawrence Ave,41.96910295810109,-87.67424412072272,casual,4234,62.45150652024512
Larrabee St & Kingsbury St,41.89769725289027,-87.64306607703801,casual,4183,62.69167017371819
Ellis Ave & 60th St,41.78510319804936,-87.60107355855739,casual,4173,62.93125968506007
Sheffield Ave & Kingsbury St,41.910560542056075,-87.65313900881456,casual,4066,63.16470587559833
Michigan Ave & 14th St,41.86413848587364,-87.62371728615746,casual,4052,63.39734826715293
Clinton St & Jackson Blvd,41.87833869349281,-87.64110086058503,casual,4034,63.6289572028714
Fort Dearborn Dr & 31st St,41.838557096823145,-87.60820334315946,casual,4026,63.86010682488493
McCormick Place,41.851416322211854,-87.61884343213619,casual,3965,64.08775417989825
Lakefront Trail & Wilson Ave,41.96578579198431,-87.64540539734244,casual,3951,64.31459773592792
Ogden Ave & Chicago Ave,41.896362874459186,-87.654070608125,casual,3920,64.53966145135092
Dayton St & North Ave,41.91059811569676,-87.64945476891843,casual,3911,64.76420843885587
Western Ave & Winnebago Ave,41.91554922286375,-87.68703389883548,casual,3890,64.98754972788534
Clark St & Berwyn Ave,41.97801666379579,-87.66833615941283,casual,3849,65.20853703417696
Clarendon Ave & Junior Ter,41.96100246525712,-87.64958204342992,casual,3831,65.42849088463245
Larrabee St & Division St,41.90350404042083,-87.64333837469752,casual,3802,65.64677972290752
Cannon Dr & Fullerton Ave,41.92673499652894,-87.6344389508421,casual,3800,65.86495373275636
Wabash Ave & Adams St,41.87949120206156,-87.62571581921199,casual,3769,66.08134790199853
Sedgwick St & Huron St,41.89468230824223,-87.63838226243837,casual,3732,66.29561774535533
Racine Ave & Fullerton Ave,41.92558634572237,-87.65845702307547,casual,3710,66.50862447602354
Southport Ave & Clybourn Ave,41.920765859835754,-87.66372447912948,casual,3653,66.71835859654401
Clarendon Ave & Gordon Ter,41.9578399481631,-87.64949476397584,casual,3642,66.92746116072018
Canal St & Madison St,41.88216435705964,-87.63982786120651,casual,3622,67.13541544063399
Damen Ave & Chicago Ave,41.89569403959956,-87.67715291930682,casual,3621,67.34331230633468
Desplaines St & Randolph St,41.88460013432597,-87.64453810096961,casual,3620,67.55115175782225
Rush St & Hubbard St,41.89017088762357,-87.62621470655684,casual,3581,67.75675205499823
State St & Harrison St,41.87403056744814,-87.62770177224212,casual,3519,67.95879267096086
Calumet Ave & 18th St,41.85766477596176,-87.61952688662956,casual,3504,68.15997207372673
Clifton Ave & Armitage Ave,41.91820621965133,-87.65697107604458,casual,3499,68.36086440542702
Sheffield Ave & Willow St,41.91371505189808,-87.65285048883482,casual,3493,68.5614122518486
Franklin St & Monroe St,41.88016036807294,-87.63532298168582,casual,3482,68.76132854192588
Aberdeen St & Randolph St,41.884138454376256,-87.65427523165081,casual,3471,68.96061327565884
Michigan Ave & 18th St,41.85783787803973,-87.62454606460999,casual,3423,69.15714212716215
Wells St & Polk St,41.8727250123616,-87.63363729012957,casual,3396,69.35212079491126
Wells St & Walton St,41.89994027307601,-87.63444045977901,casual,3394,69.54698463423415
Carpenter St & Huron St,41.894560797143704,-87.6534765174039,casual,3382,69.74115950299961
Halsted St & Willow St,41.913856431619784,-87.64877753700326,casual,3377,69.93504730069948
LaSalle St & Jackson Blvd,41.87813038198933,-87.63185902390454,casual,3373,70.12870544154688
Ellis Ave & 55th St,41.794298436226526,-87.60144098108196,casual,3355,70.32133012655815
Damen Ave & Division St,41.903262620227345,-87.67846297186658,casual,3343,70.51326584101201
Orleans St & Chestnut St (NEXT Apts),41.89815433511537,-87.63754167920287,casual,3337,70.70485707018716
Larrabee St & Armitage Ave,41.91809081734337,-87.64374838039926,casual,3256,70.89179774809973
Morgan St & Lake St,41.885809718832455,-87.65104143273149,casual,3229,71.07718824225813
State St & Van Buren St,41.877125817558174,-87.62786466977971,casual,3223,71.2622342511378
Broadway & Wilson - Truman College Vaccination Site,41.96520865980124,-87.6582304253851,casual,3220,71.44710801737814
Paulina Ave & North Ave,41.910099895967996,-87.67001405086602,casual,3187,71.63008711458556
Halsted St & Maxwell St,41.864867121512766,-87.64707834699968,casual,3173,71.81226241280933
Aberdeen St & Jackson Blvd,41.8777146953071,-87.65482940886436,casual,3126,71.99173924301657
900 W Harrison St,41.8747518861804,-87.64980741374471,casual,3071,72.16805829150229
Clark St & Leland Ave,41.96708723310311,-87.6673073334599,casual,3055,72.34345871257814
Canal St & Monroe St,41.88163651443021,-87.63950820315598,casual,3045,72.51828499152279
Eckhart Park,41.896388013898246,-87.6610031716485,casual,3027,72.69207781463133
Marine Dr & Ainslie St,41.971603450710276,-87.65017786491576,casual,3027,72.86587063773986
Ashland Ave & Blackhawk St,41.907054808483444,-87.66724748907285,casual,3020,73.03926156135657
Dearborn St & Adams St,41.879210084613845,-87.62973629915079,casual,2991,73.21098747279284
Wabash Ave & 16th St,41.86038331630295,-87.6258127075703,casual,2951,73.3804168157044
Franklin St & Adams St (Temp),41.87928267763356,-87.63551072700342,casual,2920,73.54806631800929
Canal St & Jackson Blvd,41.87724765914718,-87.63941589861416,casual,2908,73.71502684975675
Elston Ave & Cortland St,41.91643262115597,-87.66673563569358,casual,2898,73.88141323937306
Clinton St & Roosevelt Rd,41.86712061516073,-87.64107334661774,casual,2862,74.04573271731711
Aberdeen St & Monroe St,41.88041171942777,-87.65556147390322,casual,2831,74.20827235465448
Racine Ave & Wrightwood Ave,41.92889497068905,-87.65898163071378,casual,2830,74.37075457777875
Western Ave & Walton St,41.898427905122126,-87.68659639112212,casual,2825,74.53294972983741
Damen Ave & Thomas St (Augusta Blvd),41.90133428335823,-87.67743493006759,casual,2811,74.69434108291244
Sangamon St & Washington Blvd,41.883074125363244,-87.65110833662393,casual,2808,74.8555601933481
California Ave & Cortez St,41.900370382671184,-87.69686648131241,casual,2804,75.0165496469313
Broadway & Argyle St,41.97377529189865,-87.65974122986081,casual,2802,75.17742427208826
Desplaines St & Jackson Blvd,41.8781080789853,-87.64404555969523,casual,2789,75.33755251247467
Ogden Ave & Race Ave,41.8917974687783,-87.65879879790154,casual,2783,75.49733626758238
Loomis St & Lexington St,41.87219682641081,-87.66147503944865,casual,2775,75.65666070898516
Delano Ct & Roosevelt Rd,41.86749819550667,-87.63221779596105,casual,2773,75.81587032196168
Sheridan Rd & Buena Ave,41.95844443111512,-87.655011174893545,casual,2771,75.97496510651199
Larrabee St & North Ave,41.910112022682576,-87.6435119243167,casual,2766,76.13377281999668
Cornell Ave & Hyde Park Blvd,41.80241885942857,-87.58690249810488,casual,2765,76.29252311926827
Sangamon St & Lake St,41.88582322135096,-87.65105118607751,casual,2761,76.45104376168737
Walsh Park,41.914546876816686,-87.66797088867546,casual,2733,76.60795680613919
Greenview Ave & Diversey Pkwy,41.932615644638375,-87.66595635537638,casual,2710,76.76354932368928
Damen Ave & Charleston St,41.92007572625,-87.6779101065681,casual,2672,76.91696010114087
Broadway & Granville Ave,41.99475852053303,-87.66032843292417,casual,2664,77.06991156488753
LaSalle St & Washington St,41.8826638251693,-87.63254088275771,casual,2658,77.22251854335548
Museum of Science and Industry,41.7917364844151,-87.58394674168302,casual,2650,77.37466620811848
Ada St & Washington Blvd,41.88283647503796,-87.66120098323462,casual,2634,77.5258952454716
Southport Ave & Irving Park Rd,41.95416343083015,-87.66431959387145,casual,2614,77.67597599856235
Lake Park Ave & 53rd St,41.799520604527004,-87.58642920356186,casual,2611,77.82588450901375
Orleans St & Hubbard St,41.88995407305449,-87.63662626672678,casual,2606,77.97550594839954
Clark St & Bryn Mawr Ave,41.983557569746644,-87.66920266442995,casual,2605,78.12506997357224
Halsted St & Polk St,41.871826152947975,-87.64664105644701,casual,2595,78.27405985661375
Leavitt St & North Ave,41.91036284471158,-87.68237909949671,casual,2583,78.42236076909784
Dearborn St & Van Buren St,41.87625445558457,-87.62923692492986,casual,2566,78.56968563995892
Campbell Ave & North Ave,41.91053472730589,-87.68956429651764,casual,2550,78.71609188341012
Noble St & Milwaukee Ave,41.90069573306211,-87.66258663983098,casual,2544,78.8621536415826
Ashland Ave & Grace St,41.95067773670209,-87.66869989399449,casual,2541,79.00804315711571
Broadway & Thorndale Ave,41.98975018960885,-87.66013451993679,casual,2531,79.15335853051766
Financial Pl & Ida B Wells Dr,41.875052058649736,-87.63311771275292,casual,2481,79.29580319326371
Ashland Ave & Wrightwood Ave,41.9288270791129,-87.66853130045565,casual,2480,79.43819044179664
Clarendon Ave & Leland Ave,41.9679472754933,-87.65000505388957,casual,2463,79.57960164870654
Broadway & Berwyn Ave,41.978351963446165,-87.65976320122348,casual,2452,79.72038129927216
Clark St & Montrose Ave,41.961569602909464,-87.66613681551853,casual,2430,79.85989783714918
Morgan St & Polk St,41.87187705150889,-87.65107055066557,casual,2419,79.99878281868189
Western Ave & Leland Ave,41.9664236662676,-87.68869233864955,casual,2414,80.13738072914902
Fairbanks St & Superior St,41.89576042981312,-87.62012441533638,casual,2408,80.27563415433744
Calumet Ave & 21st St,41.85416139106723,-87.619181055029415,casual,2380,80.41227998155856
Winthrop Ave & Lawrence Ave,41.968834976972126,-87.65764753138514,casual,2368,80.54823683822225
May St & Taylor St,41.869490628879966,-87.6554858598098,casual,2366,80.68407886645971
N Green St & W Lake St,41.89,-87.65,casual,2340,80.81842812515609
State St & Pearson St,41.89745511588591,-87.62873041732065,casual,2314,80.95128461431142
Canal St & Taylor St,41.87021360038079,-87.6394738348637,casual,2311,81.08396886082737
Wacker Dr & Washington St,41.88316758407118,-87.63729586191405,casual,2304,81.21625120785151
Racine Ave & 18th St,41.85819431256087,-87.65647141313043,casual,2300,81.34830389802316
Woodlawn Ave & 55th St,41.79530400599913,-87.59651340854394,casual,2287,81.4796102034243
Western Ave & Division St,41.90289924415351,-87.68736659660965,casual,2280,81.61051460933359
Lake Park Ave & 56th St,41.79325331048309,-87.5877967102679,casual,2277,81.74124677260355
Jefferson St & Monroe St,41.880341295751315,-87.64273731661248,casual,2276,81.87192152166037
Seeley Ave & Roscoe St,41.94339415196217,-87.67964613552574,casual,2273,82.00242402807785
Bissell St & Armitage Ave,41.917989241928666,-87.65215864162484,casual,2271,82.13281170606909
Lincoln Ave & Roscoe St*,41.94334590574449,-87.67074077328193,casual,2270,82.26314196984721
Humboldt Blvd & Armitage Ave,41.91752023625442,-87.70181424923145,casual,2264,82.39312774834661
Sheridan Rd & Lawrence Ave,41.969505106809656,-87.65471256481233,casual,2238,82.52162075730496
Wood St & Chicago Ave,41.89562828818141,-87.6721028730697,casual,2238,82.65011376626329
Blue Island Ave & 18th St,41.85750621599374,-87.66158548988362,casual,2234,82.77837711836916
Ashland Ave & Lake St,41.885948926408986,-87.66718523042697,casual,2225,82.90612374255697
Sheridan Rd & Noyes St (NU),42.05812586174797,-87.67746173531165,casual,2214,83.03323881040046
Chicago Ave & Sheridan Rd,42.05047404415787,-87.67783075369435,casual,2179,83.15834438078484
Broadway & Ridge Ave,41.9840301934071,-87.66028343106501,casual,2169,83.28287580903803
Damen Ave & Wellington Ave,41.93588189032855,-87.67843163191579,casual,2161,83.40694792358627
Spaulding Ave & Armitage Ave,41.917123633691524,-87.71023189675313,casual,2159,83.53090520970828
Ashland Ave & Grand Ave,41.8910974388175,-87.66670112645717,casual,2148,83.654230939486
Ashland Ave & Wellington Ave,41.93603645355368,-87.6698425353024,casual,2133,83.77669545606693
Lincoln Ave & Belmont Ave (Temp),41.93949568243645,-87.67108844999521,casual,2085,83.8964040904182
Morgan St & 18th St,41.85812590533915,-87.65110559389535,casual,2064,84.01490702629398
Racine Ave & Randolph St,41.88407193594739,-87.6569007314418,casual,2053,84.13277840582548
Logan Blvd & Elston Ave,41.92945401876284,-87.68416759564792,casual,2045,84.25019047165202
Leavitt St & Armitage Ave,41.917758141116,-87.68246104529123,casual,2043,84.36748770905233
Clybourn Ave & Division St,41.90459904954839,-87.64056821978164,casual,2015,84.48317734848533
Morgan St & Lake St*,41.88549953076385,-87.65231962925611,casual,2003,84.59817801736091
Clark St & 9th St (AMLI),41.87080941178411,-87.63120415197902,casual,2001,84.71306385781025
Milwaukee Ave & Rockwell St,41.92024556158874,-87.69268330738562,casual,1989,84.82726072770218
California Ave & Francis Pl (Temp),41.91852317442756,-87.6974431801469,casual,1974,84.94059638439734
Clark St & Ida B Wells Dr,41.87593249405488,-87.6306998987246,casual,1968,85.05358755581379
Ashland Ave & Augusta Blvd,41.899577971014864,-87.66805177679139,casual,1951,85.16560268560724
Ravenswood Ave & Irving Park Rd,41.95464676702619,-87.67389663888547,casual,1947,85.2773881585482
Wolcott (Ravenswood) Ave & Montrose Ave,41.96142637159979,-87.67621450325618,casual,1944,85.38900138884982
Benson Ave & Church St,42.04821734150181,-87.68347844884516,casual,1931,85.4998682343809
California Ave & Division St,41.903024417935924,-87.69749171590337,casual,1904,85.60918489615779
Larrabee St & Oak St,41.900236732466915,-87.64299119560614,casual,1889,85.7176403447379
California Ave & North Ave,41.91046056511702,-87.69702547804788,casual,1880,85.82557906539996
Lincoln Ave & Sunnyside Ave,41.963019175617674,-87.6848013207934,casual,1878,85.93340295763578
Leavitt St & Chicago Ave,41.89549044639785,-87.68199424969355,casual,1860,86.04019339403547
Sheridan Rd & Loyola Ave,42.00107950575446,-87.66123117744186,casual,1849,86.14635227409086
Leavitt St & Belmont Ave,41.93934412560804,-87.68332121130294,casual,1842,86.25210925465443
Albany Ave & Bloomingdale Ave,41.914009738586955,-87.70514443495652,casual,1840,86.35775140679176
Ashland Ave & Chicago Ave,41.89540562857377,-87.66771174716939,casual,1830,86.46281941679791
Lincoln Ave & Belle Plaine Ave,41.95601525648442,-87.6802232223018,casual,1829,86.56783001259095
Sedgwick St & Schiller St,41.907621831794444,-87.63852666633889,casual,1800,86.67117559620354
Racine Ave & Washington Blvd,41.88310339315175,-87.65699487030017,casual,1799,86.77446376560303
Larrabee St & Menomonee St,41.914680227278794,-87.64335333074013,casual,1797,86.87763710657627
Damen Ave & Grand Ave,41.892363966903005,-87.67689554785025,casual,1763,86.97885836430352
Wabash Ave & Cermak Rd,41.85261640825469,-87.62652094724844,casual,1759,87.07984996517828
Wood St & Augusta Blvd,41.89917467741163,-87.67219479206386,casual,1754,87.18055449498745
LaSalle St & Adams St,41.879394464622855,-87.63195535952,casual,1750,87.28102936794416
Leavitt St & Division St,41.90299646073641,-87.68378897109878,casual,1711,87.37926508658924
Green St & Randolph St,41.88321943519093,-87.64877574332338,casual,1676,87.4754913077752
Halsted St & Roosevelt Rd,41.86736149033553,-87.64863393761533,casual,1669,87.57131562946934
Damen Ave & Leland Ave,41.96706567201201,-87.67906241632433,casual,1665,87.666910294311
Kedzie Ave & Palmer Ct,41.92149877050786,-87.70730248223096,casual,1654,87.76187340280835
Orleans St & Elm St,41.90291309944479,-87.63772191753239,casual,1621,87.85494184227282
Stave St & Armitage Ave,41.917732352520126,-87.69142416959133,casual,1615,87.94766579645858
Damen Ave & Clybourn Ave,41.931909656695595,-87.6778299068878,casual,1613,88.0402749222181
Paulina St & 18th St,41.85789957871634,-87.66864785145272,casual,1597,88.13196542056772
MLK Jr Dr & 29th St,41.84204107155371,-87.61697503710998,casual,1564,88.22176124988445
Damen Ave & Melrose Ave,41.9404931390461,-87.67857141072344,casual,1562,88.31144225077495
Ellis Ave & 58th St,41.78872855471493,-87.60131063899424,casual,1561,88.40106583745232
Lincoln Ave & Addison St,41.946182515000004,-87.67330893901428,casual,1542,88.48959855408046
California Ave & Fletcher St,41.93843280029547,-87.6980160799606,casual,1523,88.57704040065934
Lincoln Ave & Waveland Ave,41.948800480598685,-87.675270183342107,casual,1520,88.66431000459887
Damen Ave & Foster Ave,41.97562249041667,-87.6794515037963,casual,1512,88.75112029483347
Loomis St & Jackson Blvd,41.87793841772998,-87.66200491469888,casual,1511,88.83787317085495
Throop St & Taylor St,41.86889369984768,-87.65911967991391,casual,1510,88.9245686326633
Blackstone Ave & Hyde Park Blvd,41.80264842143331,-87.59043044110815,casual,1507,89.01109185183229
Wood St & Hubbard St,41.88988674214381,-87.67149462873502,casual,1502,89.0973279999357
Buckingham Fountain (Temp),41.869654471429534,-87.62398010335806,casual,1483,89.18247327798986
Green St & Washington Blvd,41.88319458465957,-87.64875171115602,casual,1410,89.263427318486393
Racine Ave & Congress Pkwy,41.8746364261194,-87.65703082570718,casual,1407,89.34420911634359
Campbell Ave & Fullerton Ave,41.92464204710114,-87.68931012589744,casual,1404,89.42481867156143
Elizabeth (May) St & Fulton St,41.886519940466286,-87.65829301395983,casual,1394,89.50485408464807
Central Park Ave & Bloomingdale Ave,41.91416258655596,-87.71676028919134,casual,1385,89.58437276981665
Paulina St & Montrose Ave,41.9614781311572,-87.6714341268559,casual,1374,89.66325989864094
Paulina St & Flournoy St,41.87299016455474,-87.66908239320438,casual,1370,89.74191737061277
Glenwood Ave & Morse Ave,42.007964390036605,-87.66547674345534,casual,1366,89.82034518573211
Troy St & North Ave,41.90979810074704,-87.7053162304142,casual,1352,89.8979692018678
State St & 33rd St,41.834638599858735,-87.62579501431226,casual,1345,89.97519131851166
Ashland Ave & Belle Plaine Ave,41.956072357000004,-87.66886179051492,casual,1340,90.05212636408993
California Ave & Altgeld St,41.92667749816204,-87.69770017269317,casual,1333,90.12865951017638
Damen Ave & Madison St,41.88139332539694,-87.67492192442748,casual,1310,90.2038721293611
Elston Ave & Wabansia Ave,41.912983546792454,-87.6641894095283,casual,1272,90.27690300844735
Ellis Ave & 53rd St,41.799349726640436,-87.60096870998426,casual,1271,90.34987647332048
Wells St & 19th St,41.85679466287628,-87.6338700116706,casual,1269,90.42273510976736
Sheridan Rd & Argyle St,41.97330808974318,-87.65471454844301,casual,1246,90.49427321931253
St. Louis Ave & Fullerton Ave,41.92485122053528,-87.71449070718573,casual,1233,90.56506494408717
Wolcott Ave & Polk St,41.87135842810458,-87.67371889406863,casual,1224,90.63533994094374
Southport Ave & Clark St,41.95708975193944,-87.66419779581014,casual,1222,90.70550010937407
Halsted St & 18th St,41.85745913420314,-87.64607046344344,casual,1211,90.77502872146012
Chicago Ave & Washington St,42.03238931312914,-87.67914901017384,casual,1208,90.8443850909068
State St & 19th St,41.85654284138912,-87.62753893510461,casual,1195,90.91299507558294
Central Park Ave & Elbridge Ave,41.93534473066331,-87.71686267133501,casual,1191,90.98137540340662
University Library (NU),42.05293623109244,-87.673413583,casual,1190,91.04969831701717
Milwaukee Ave & Fullerton Ave,41.92001686340641,-87.7,casual,1186,91.11779157377525
Winchester Ave & Elston Ave,41.92408930433755,-87.67645695359494,casual,1185,91.18582741632022
Damen Ave & Sunnyside Ave,41.96325660057481,-87.67929169858834,casual,1183,91.25374843043895
Emerald Ave & 31st St,41.838207300152156,-87.6451344421978,casual,1183,91.32166944455767
Racine Ave & 15th St,41.8612528724683,-87.6565600067033,casual,1183,91.38959045867641
Lake Park Ave & 35th St,41.831271280949956,-87.60880029324852,casual,1179,91.45728181594266
Talman Ave & Addison St,41.94663908727117,-87.69462718861419,casual,1169,91.52439903107773
Morgan Ave & 14th Pl,41.8623928707315,-87.65109787203097,casual,1162,91.59111434672099
Damen Ave & Walnut (Lake) St,41.88594806839793,-87.67701678470284,casual,1161,91.65777224815112
Clinton St & Tilden St,41.87587877392919,-87.64076988062176,casual,1158,91.7242579069419
Sheridan Rd & Columbia Ave,42.004574916822506,-87.66144668767966,casual,1155,91.79057132309332
Clinton St & 18th St,41.858001387391305,-87.64092273233913,casual,1150,91.85659766817915
Leavitt St & Addison St,41.94663150823888,-87.68336912534437,casual,1147,91.92245177062563
California Ave & Montrose Ave,41.96108061735611,-87.69543660758093,casual,1112,91.98629637561297
Claremont Ave & Hirsch St,41.90776960826679,-87.68586436154266,casual,1102,92.04956683846913
Western Ave & Roscoe St,41.94304390415679,-87.68729562293528,casual,1097,92.1125502302597
Richmond St & Diversey Ave,41.931915585196705,-87.7012218936139,casual,1093,92.1753039651978
Laflin St & Cullerton St,41.85487224820018,-87.66362810160697,casual,1089,92.23782804328343
Clark St & Elmdale Ave,41.99055268846083,-87.66981901185252,casual,1085,92.30012246451658
Ravenswood Ave & Berteau Ave,41.95783262759447,-87.67359277729955,casual,1085,92.36241688574974
Lake Park Ave & 47th St,41.80944885390222,-87.59187147505536,casual,1084,92.42465389276977
Greenview Ave & Jarvis Ave,42.015970577642655,-87.668597209261,casual,1069,92.48602968659303
Damen Ave & Cullerton St,41.85496552041431,-87.67565579195856,casual,1062,92.54700358092447
Clark St & Lunt Ave,42.009042463946614,-87.67419749469971,casual,1049,92.60723109048537
Lincoln Ave & Roscoe St,41.94380757739593,-87.67123861912876,casual,1033,92.66653997263639
Kimball Ave & Belmont Ave,41.93940420749027,-87.71162852649806,casual,1028,92.72556178372182
Wilton Ave & Diversey Pkwy*,41.93242643253891,-87.65271579635214,casual,1028,92.78458359480723
Rhodes Ave & 32nd St,41.83641839461388,-87.61347802733138,casual,1023,92.84331833482706
W Oakdale Ave & N Broadway,41.94,-87.64,casual,993,92.90033064845335
Kosciuszko Park,41.93056055991927,-87.72380482489405,casual,991,92.9572281336534
Hampden Ct & Diversey Ave,41.93,-87.64,casual,987,93.01389596200099
Damen Ave & Wabansia Ave,41.91,-87.68,casual,986,93.07050637613544
Racine Ave & Fullerton Ave (Temp),41.925157733401015,-87.6572548506802,casual,985,93.12705937605678
Halsted St & Archer Ave,41.84723909581633,-87.64685578727551,casual,980,93.18332530491253
May St & Cullerton St,41.855162474402064,-87.65414696803093,casual,970,93.2390170916371
Clark St & Schreiber Ave,41.99893572503612,-87.67140595260062,casual,969,93.29465146414856
Harper Ave & 59th St,41.787955450335424,-87.58832020143606,casual,954,93.34942462346324
California Ave & Byron St,41.95216001856536,-87.69806242515409,casual,941,93.40345139800739
Canal St & Harrison St,41.87424350076596,-87.63958853880851,casual,940,93.4574207583384
Morgan St & 31st St,41.8377895691889,-87.65115775643544,casual,937,93.51121787603009
Artesian Ave & Hubbard St,41.88954030561028,-87.68815909933619,casual,934,93.5648427510824
Wentworth Ave & 35th St,41.83078682682403,-87.63250189885193,casual,932,93.61835279770848
Lincoln Ave & Winona St,41.97486536426049,-87.6927046397351,casual,906,93.6703700747935
Leavitt St & Lawrence Ave,41.968895947696566,-87.68402730950166,casual,903,93.72221510923914
Spaulding Ave & Division St,41.90274960104911,-87.70928184822544,casual,896,93.77365824419299
Calumet Ave & 33rd St,41.834955938552184,-87.61795550823794,casual,891,93.82481430808123
Avers Ave & Belmont Ave,41.93940640433708,-87.72356762994382,casual,890,93.87591295775634
Oakley Ave & Irving Park Rd,41.95430343705287,-87.68605218352081,casual,889,93.92695419321835
Washtenaw Ave & Lawrence Ave,41.96885727971494,-87.69610236649943,casual,877,93.97730645812294
Rockwell St & Eastwood Ave,41.96586778783257,-87.69365506771788,casual,872,94.02737165196193
Sheridan Rd & Greenleaf Ave,42.01058890566514,-87.66240986813074,casual,872,94.07743684580092
Lincoln Ave & Belmont Ave,41.93937690791475,-87.66833373592166,casual,868,94.12727238278745
Western Ave & Congress Pkwy,41.8746915504947,-87.68639778321555,casual,849,94.17601704972472
Wentworth Ave & 24th St (Temp),41.8500766540732,-87.63215160255018,casual,847,94.22464688823578
State St & 35th St,41.83104739776987,-87.62684786735468,casual,843,94.27304706989435
Hermitage Ave & Polk St,41.8715159986506,-87.66989638373494,casual,830,94.32070086678237
Halsted St & 35th St,41.830668038727275,-87.64714361922424,casual,825,94.36806759260482
Hoyne Ave & Balmoral Ave,41.9798775136,-87.68194602122425,casual,825,94.41543431842726
Western Ave & Fillmore St,41.868594916077214,-87.68624912688668,casual,803,94.46153793156111
Ogden Ave & Congress Pkwy,41.87500737726933,-87.67324828738155,casual,802,94.50758413048183
Paulina St & Howard St,42.01915456144654,-87.6735620695346,casual,795,94.55322842991075
Troy St & Elston Ave,41.945232584311,-87.70664620972187,casual,791,94.59864307248716
Wood St & Taylor St (Temp),41.86942830540436,-87.67374725911425,casual,779,94.64336874450618
Halsted St & 21st St,41.85379030890066,-87.64658586421193,casual,755,94.68671647541035
Indiana Ave & 26th St,41.84569108855228,-87.62250458316353,casual,746,94.72954747839647
Wentworth Ave & 33rd St,41.834532254772114,-87.63182739308311,casual,746,94.77237848138257
Greenwood Ave & 47th St,41.80982140030997,-87.59935614814016,casual,742,94.81497982751623
Winchester (Ravenswood) Ave & Balmoral Ave,41.979653578707484,-87.67755268359184,casual,735,94.85717927415803
W Armitage Ave & N Sheffield Ave,41.92,-87.65,casual,724,94.89874716445556
Avondale Ave & Irving Park Rd,41.953299233089886,-87.73187361199437,casual,712,94.93962608419565
Campbell Ave & Montrose Ave,41.96154890650212,-87.69117129174894,casual,709,94.9803327612964
Christiana Ave & Lawrence Ave,41.96840185733905,-87.71178155459228,casual,699,95.02046529626595
Clark St & Columbia Ave,42.00445561134671,-87.67240410074498,casual,698,95.0605404170224
Halsted St & North Branch St,41.89941013243832,-87.64860263206096,casual,689,95.10009880986078
Indiana Ave & 31st St,41.83882323408163,-87.62186086120991,casual,686,95.1394849600598
Prairie Ave & Garfield Blvd,41.79482805899557,-87.61872804664696,casual,677,95.17835438234077
Cherry Ave & Blackhawk St,41.90722827763314,-87.65564456202662,casual,676,95.21716639040861
Francisco Ave & Foster Ave,41.97564380623704,-87.7014270789037,casual,675,95.25592098426334
Monticello Ave & Irving Park Rd,41.95393804710015,-87.71902195750374,casual,669,95.29433109283936
Cottage Grove Ave & 51st St,41.80303586502297,-87.60660757019909,casual,653,95.33182257400549
Smith Park,41.89206076962617,-87.6894463570405,casual,642,95.36868249882731
Glenwood Ave & Touhy Ave,42.01275306041801,-87.66603867295821,casual,622,95.40439413938678
Albany Ave & Montrose Ave,41.96103346694042,-87.70585097339774,casual,621,95.44004836573313
Wallace St & 35th St,41.830683396077795,-87.64126921482982,casual,617,95.47547293522702
Western Ave & Monroe St,41.87979871569805,-87.68608825836039,casual,616,95.51084009050777
Malcolm X College Vaccination Site,41.87761273990244,-87.67389543947968,casual,615,95.5461498315754
Cottage Grove Ave & Oakwood Blvd,41.822982907295085,-87.60708666983606,casual,610,95.58117250157746
N Carpenter St & W Lake St,41.89,-87.65,casual,610,95.6161951715795
Rockwell St & Fletcher St,41.94,-87.69,casual,609,95.65116042736844
Central Park Ave & North Ave,41.90965244402985,-87.71664079850746,casual,603,95.68578119787865
Eastlake Ter & Rogers Ave,42.020811502499996,-87.665021635689655,casual,580,95.71908144148716
Shields Ave & 31st St,41.83844908875217,-87.63539490225304,casual,577,95.75220944245632
Broadway & Wilson Ave,41.9652114048,-87.65826015473044,casual,575,95.78522261499923
Kedzie Ave & Leland Ave,41.96668250676785,-87.70807511301786,casual,560,95.81737457434538
Drake Ave & Addison St,41.94736824818996,-87.71759827482079,casual,558,95.84941170526528
Evanston Civic Center,42.057035319193545,-87.68656945783154,casual,558,95.88144883618519
South Shore Dr & 71st St,41.76651489244123,-87.56563967661845,casual,553,95.9131988960395
Cottage Grove Ave & 47th St,41.80982179108856,-87.60673703789668,casual,542,95.94431739954953
MLK Jr Dr & Pershing Rd,41.82451454971591,-87.61694178723485,casual,528,95.9746321040759
N Sheffield Ave & W Wellington Ave,41.94,-87.65,casual,528,96.00494680860226
Emerald Ave & 28th St,41.84358187624521,-87.6453989722797,casual,522,96.03491702784991
Kedzie Ave & Foster Ave,41.975671881098265,-87.70926829177264,casual,519,96.06471500445821
South Shore Dr & 67th St,41.77364462388031,-87.56746318994209,casual,518,96.0944555668534
Manor Ave & Leland Ave,41.965870989224804,-87.70082887286821,casual,516,96.12408130082234
Ashland Ave & 13th St,41.865248850643276,-87.66650902955165,casual,513,96.15353479215194
Western Ave & 21st St,41.854094779782606,-87.6858469574506,casual,506,96.1825863839897
Keystone Ave & Fullerton Ave,41.92457995285149,-87.7278665740594,casual,505,96.21158056161435
Loomis St & Archer Ave,41.841641498911294,-87.65745373673387,casual,496,96.24005801132094
California Ave & Lake St,41.88445859587879,-87.69629937622221,casual,495,96.2684780468144
Ogden Ave & Roosevelt Rd,41.86651176134419,-87.68461839130346,casual,491,96.2966684254554
Drake Ave & Montrose Ave,41.96115899059305,-87.71659082805726,casual,489,96.32474397567016
Cottage Grove Ave & 63rd St,41.78059338106029,-87.60592695889812,casual,481,96.35236021217996
Western Ave & Lunt Ave,42.008603409978946,-87.69046521376842,casual,475,96.37963196341107
Wood St & Webster Ave,41.921090552114165,-87.6727900907611,casual,473,96.406788886215935
Central St Metra,42.06340335388535,-87.69865680798301,casual,471,96.43383098059456
Calumet Ave & 35th St,41.831380447316015,-87.61803519155843,casual,462,96.46035634705514
Elston Ave & George St,41.93,-87.69,casual,462,96.4868817135157
Western Ave & Granville Ave,41.99416751980435,-87.68944796097826,casual,460,96.51329225155004
Warren Park West,42.00178741396514,-87.68882962860566,casual,459,96.53964537537125
63rd St Beach,41.78091639635371,-87.57631796585153,casual,458,96.56594108497936
Bernard St & Elston Ave,41.949928789802634,-87.71395295074561,casual,456,96.59212196616122
Ashland Ave & Archer Ave,41.83916331269488,-87.66561195721604,casual,449,96.61790094785124
Calumet Ave & 51st St,41.80216596026966,-87.61816470620225,casual,445,96.6434502726888
Clinton St & Polk St,41.87145519022523,-87.64094554754504,casual,444,96.66894218331325
Woodlawn Ave & Lake Park Ave,41.81409005907658,-87.59700900677927,casual,444,96.69443409393769
Dorchester Ave & 49th St,41.805780328295455,-87.59246762681819,casual,440,96.71969634770966
Shields Ave & 28th Pl,41.84267870860412,-87.63564704185355,casual,437,96.74478635884228
Central St & Girard Ave,42.06368184,-87.68634300510689,casual,421,96.768957742565
Knox Ave & Montrose Ave,41.960658465441526,-87.74537924601432,casual,419,96.79301429786149
Central Park Ave & Ogden Ave,41.85394623325359,-87.71515407306221,casual,418,96.81701343894487
Prairie Ave & 43rd St,41.816665292679424,-87.61941353026316,casual,418,96.84101258002823
Dorchester Ave & 63rd St,41.78040896759615,-87.59140598067307,casual,416,96.86489689268537
California Ave & 21st St,41.85369534857143,-87.69548087663438,casual,413,96.88860896270315
Leavitt St & Archer Ave,41.82876409124088,-87.68063796486618,casual,411,96.91220620429469
Base - 2132 W Hubbard,41.90312778995098,-87.69508478573529,casual,408,96.93563120324688
Conservatory Dr & Lake St,41.88549637233415,-87.7168577720393,casual,407,96.95899878798596
Sawyer Ave & Irving Park Rd,41.95324037258621,-87.70930044866995,casual,406,96.98230895851192
DuSable Museum,41.79155952174563,-87.60785310688279,casual,401,97.00533205797228
Elmwood Ave & Austin St,42.02577931326683,-87.68410778319202,casual,401,97.02835515743264
Kedzie Ave & 48th Pl,41.8,-87.7,casual,397,97.05114860004053
Cottage Grove Ave & 43rd St,41.81682817903798,-87.60684377582278,casual,395,97.07382721422219
Washtenaw Ave & Ogden Ave,41.8619211361282,-87.69348625215385,casual,390,97.09621875733826
Burnham Greenway & 112th St,41.69177069572165,-87.53043697427835,casual,388,97.11849547202809
Keystone Ave & Montrose Ave,41.96109253208443,-87.72897654968338,casual,379,97.14025545879986
Budlong Woods Library,41.98366322168,-87.69641051376,casual,375,97.16178578871914
Kedzie Ave & Bryn Mawr Ave,41.982246016639785,-87.70889645123655,casual,372,97.18314387599908
Dodge Ave & Church St,42.04796122457994,-87.69821437785907,casual,369,97.20432972063966
Francisco Ave & Montrose Ave,41.96,-87.7,casual,369,97.22551556528025
Pulaski Rd & Eddy St (Temp),41.94627032227642,-87.73105047243902,casual,369,97.24670140992083
Jeffery Blvd & 67th St,41.77342429280654,-87.57730047708446,casual,367,97.26777242613518
Troy St & Grace St,41.95,-87.71,casual,367,97.28884344234953
Western Ave & Howard St,42.01892096830137,-87.69004193887672,casual,365,97.30979963013763
Western Ave & Grace St,41.95,-87.69,casual,359,97.33041133264703
State St & 95th St,41.722408842758625,-87.62337321732758,casual,348,97.35039147881214
Racine Ave & 35th St,41.83067173259366,-87.65619565317003,casual,347,97.37031421076414
Valli Produce - Evanston Plaza,42.039721082470926,-87.69942680488373,casual,344,97.39006470007676
Sacramento Blvd & Addison St,41.95,-87.7,casual,343,97.40975777517627
Kedzie Ave & Lake St,41.88469593760234,-87.70632278385965,casual,342,97.42939343606267
Racine Ave & 13th St,41.86504418794721,-87.65697225208211,casual,341,97.44897168273596
N Southport Ave & W Newport Ave,41.94,-87.66,casual,336,97.46826285834364
2112 W Peterson Ave,41.99117263439394,-87.683593046,casual,330,97.48720954867261
Kildare Ave & Montrose Ave,41.96083965240122,-87.7354333900304,casual,329,97.50609882478847
Long & Irving Park,41.95,-87.76,casual,328,97.52493068669122
Princeton Ave & 47th St,41.809323398800004,-87.6334573423077,casual,325,97.5435903059546
Narragansett & Wrightwood,41.93,-87.79,casual,321,97.56202026836552
Clark St & Touhy Ave,42.0125665335625,-87.67432080878125,casual,320,97.5803928165633
Warren Park East,42.0045572445,-87.6806421899375,casual,320,97.5987653647611
State St & 79th St,41.75079334311321,-87.62443007669812,casual,318,97.61702308453268
N Shore Channel Trail & Argyle St,41.97,-87.7,casual,307,97.63464924795993
Normal Ave & Archer Ave,41.849587284771246,-87.64058142261437,casual,306,97.65221799717408
Ridge Blvd & Howard St,42.01926625366013,-87.68452762447713,casual,306,97.66978674638823
Elizabeth St & Fulton St,41.88672174819672,-87.65960195845902,casual,305,97.68729808138924
State St & 29th St,41.84170988613115,-87.62694709996721,casual,305,97.70480941639028
Stony Island Ave & 67th St,41.773456210660065,-87.58533604643564,casual,303,97.72220592296506
Wentworth Ave & 63rd St,41.780078667953795,-87.62975693643564,casual,303,97.73960242953984
N Paulina St & Lincoln Ave,41.94,-87.67,casual,297,97.75665445083592
St. Louis Ave & Balmoral Ave,41.9797749805802,-87.71607756153584,casual,293,97.77347681527952
Clark St & Jarvis Ave,42.0159666005137,-87.6749986845548,casual,292,97.79024176551002
Pulaski Rd & 51st St,41.8,-87.72,casual,292,97.80700671574051
Ridge Blvd & Touhy Ave,42.01213288157535,-87.68292346804795,casual,292,97.823771665971
Maplewood Ave & Peterson Ave,41.99023646083333,-87.69337451052084,casual,288,97.84030695934901
MLK Jr Dr & 47th St,41.8098445103125,-87.61628671625,casual,288,97.85684225272703
Stony Island Ave & 64th St,41.778878793658535,-87.58664930010453,casual,287,97.87332013189193
Kedzie Ave & George St,41.93,-87.71,casual,286,97.88974059684371
Damen Ave & Coulter St,41.84920143091873,-87.67564473982333,casual,283,97.90598881915614
Wood St & 35th St,41.830120798683275,-87.67030825284698,casual,281,97.92212221304233
Harlem & Irving Park,41.95,-87.81,casual,276,97.93796853586294
Western Ave & Gunnison St,41.97,-87.69,casual,276,97.95381485868353
Bosworth Ave & Howard St,42.01953551298182,-87.66953599941819,casual,275,97.969603767291
MLK Jr Dr & 63rd St,41.78008524224265,-87.61594832764706,casual,272,97.98522043325913
Stony Island Ave & 71st St,41.766492547536764,-87.5864641970956,casual,272,98.00083709922727
Western Ave & 24th St,41.8484756600369,-87.68513359789668,casual,271,98.01639635098228
Francisco Ave & Bloomingdale Ave,41.91,-87.7,casual,263,98.03149628903233
Kedzie Ave & Chicago Ave,41.89550536076336,-87.70621239431297,casual,262,98.04653881286927
Milwaukee Ave & Cuyler Ave,41.95447610181467,-87.7495967057529,casual,259,98.06140909406687
Wolcott Ave & Fargo Ave,42.01696026444882,-87.67773040685039,casual,254,98.07599230419888
Western Blvd & 48th Pl,41.80566482609756,-87.68338706117886,casual,246,98.09011620062593
W Washington Blvd & N Peoria St,41.88,-87.65,casual,245,98.10418268283986
Indiana Ave & 40th St,41.82167816700422,-87.62153597181435,casual,237,98.11778985134886
Elston Ave & Henderson St,41.94,-87.7,casual,234,98.13122477721849
Kedzie Ave & 21st St,41.85408229879828,-87.7050141739485,casual,233,98.14460228887502
Lincoln Ave & Balmoral Ave,41.98,-87.69,casual,231,98.1578649721053
Fairfield Ave & Roosevelt Rd,41.86663323504348,-87.69452069691305,casual,230,98.17107024112246
Austin Blvd & Lake St,41.8879428038326,-87.77435538762114,casual,227,98.18410326750028
Western Ave & Berteau Ave,41.96,-87.69,casual,227,98.19713629387809
MLK Jr Dr & 56th St,41.793441119911506,-87.61585503920354,casual,226,98.21011190604278
Dodge Ave & Main St,42.03471951795555,-87.69916810817777,casual,225,98.22303010399438
Oakley Ave & Touhy Ave,42.01234254542986,-87.6882534540724,casual,221,98.23571864509347
Halsted St & 37th St,41.827084220896225,-87.64571959962264,casual,212,98.24789045827451
Wabash Ave & 87th St,41.736625831179246,-87.62256486589622,casual,212,98.26006227145555
Calumet Park,41.713711604487806,-87.53083909414634,casual,205,98.27183218514476
Whipple/Irving Park,41.95,-87.7,casual,204,98.28354468462086
South Shore Dr & 74th St,41.76222376847291,-87.55923445054188,casual,203,98.29519976988384
Eberhart Ave & 61st St,41.78397280422886,-87.61424356716418,casual,201,98.30674002672058
Halsted St & 47th Pl,41.808735021044775,-87.6463180116418,casual,201,98.31828028355731
Hoyne Ave & 47th St,41.80822076671642,-87.67719124960199,casual,201,98.32982054039405
Washtenaw Ave & Polk St,41.87,-87.69,casual,200,98.34130338301767
California Ave & 23rd Pl,41.84912252105528,-87.69514176366835,casual,199,98.35272881142818
Cottage Grove Ave & 67th St,41.773723278341706,-87.60563534236181,casual,199,98.36415423983868
Archer (Damen) Ave & 37th St,41.82671386919192,-87.68314955419191,casual,198,98.37552225403607
Kilbourn Ave & Irving Park Rd,41.95373698530303,-87.7405630110101,casual,198,98.38689026823346
Union Ave & Root St,41.81912308505051,-87.64328524368686,casual,198,98.39825828243085
Princeton Ave & Garfield Blvd,41.7949800906599,-87.63312257010152,casual,197,98.40956888241512
Kedzie Ave & 57th St,41.79,-87.7,casual,193,98.42064982554692
Jeffery Blvd & 71st St,41.76662898153439,-87.57644893396825,casual,189,98.43150111182624
Lawler Ave & 50th St,41.8,-87.75,casual,189,98.44235239810556
Western Ave & 111th St,41.69121107756614,-87.68129723248677,casual,189,98.45320368438489
Kedzie Ave & Roosevelt Rd,41.86650785005319,-87.70649072425532,casual,188,98.46399755645109
Millard Ave & 26th St,41.84454050414894,-87.71595573324468,casual,188,98.47479142851729
Lincolnwood Dr & Central St,42.0648114316129,-87.7153120113441,casual,186,98.48547047215726
Halsted & 63rd - Kennedy-King Vaccination Site,41.77993961899441,-87.64476606826815,casual,179,98.49574761630541
Damen Ave & Pershing Rd,41.82319237983051,-87.67660608468927,casual,177,98.50590993202731
Albany Ave & Belmont Ave,41.94,-87.71,casual,176,98.5160148335361
Cottage Grove Ave & 71st St,41.765720538920455,-87.604981016875,casual,176,98.52611973504489
Big Marsh Park,41.685875615942855,-87.5738125993143,casual,175,98.53616722234055
Dodge Ave & Mulford St,42.02352158364162,-87.69960712965317,casual,173,98.54609988121
Phillips Ave & 79th St,41.751822024476745,-87.56521530633721,casual,172,98.55597512586631
Milwaukee Ave & Diversey Ave,41.93,-87.71,casual,170,98.56573554209639
Western Ave & 104th St,41.70459507526627,-87.68118124437869,casual,169,98.57543854411335
Kilbourn & Roscoe,41.94,-87.74,casual,168,98.58508413191718
Albany Ave & 26th St,41.84450130401198,-87.70202714479042,casual,167,98.59467230550791
Lavergne & Fullerton,41.92,-87.75,casual,162,98.60397340803306
Perry Ave & 69th St,41.769288408580245,-87.62820237240742,casual,162,98.61327451055818
Central Park Ave & 24th St,41.848637289192546,-87.71471809776398,casual,161,98.6225181988702
Commercial Ave & 130th St,41.6591023943125,-87.5507362995,casual,160,98.6317044729691
Lamon Ave & Belmont Ave,41.94,-87.75,casual,160,98.640890747068
Rockwell St & Cermak Rd,41.85,-87.69,casual,160,98.6500770211669
Stony Island Ave & 75th St,41.758671176792454,-87.5868972336478,casual,159,98.65920588105269
Austin Blvd & Madison St,41.880281265506326,-87.77445540360759,casual,158,98.66827732672535
Kilbourn Ave & Milwaukee Ave,41.94706943993671,-87.7399962363924,casual,158,98.677348772398
Damen Ave & 59th St,41.785963714551286,-87.67415448685897,casual,156,98.68630538964442
Walden Pkwy & 100th St,41.712672735612905,-87.66789236774193,casual,155,98.69520459267773
Campbell Ave & Irving Park Rd,41.95,-87.69,casual,152,98.70393155307168
Sayre & Diversey,41.93,-87.8,casual,149,98.71248627082629
Base - 2132 W Hubbard Warehouse,41.87524499156463,-87.71023349721088,casual,147,98.72092616015465
Burnham Greenway & 105th St,41.704586627931036,-87.528270386,casual,145,98.72925122105678
Rockwell St & Archer Ave,41.82,-87.69,casual,144,98.73751886774579
Yates Blvd & 75th St,41.75874689520833,-87.56643107368056,casual,144,98.7457865144348
Vernon Ave & 79th St,41.75094623986014,-87.61378975090909,casual,143,98.75399674691069
Kilpatrick Ave & Parker Ave,41.93,-87.74,casual,142,98.76214956517344
Marshfield Ave & 44th St,41.81400255417266,-87.66661052956835,casual,139,98.77013014079688
Ping Tom Park (East),41.86,-87.63,casual,139,98.7781107164203
Cicero Ave & Lake St,41.8868558135606,-87.7453058994697,casual,132,98.78568939255187
Lincoln Ave & Peterson Ave,41.99,-87.71,casual,132,98.79326806868347
Narragansett & Irving Park,41.95,-87.79,casual,131,98.80078933060194
California Ave & Winona St,41.97,-87.7,casual,129,98.8081957640942
Kostner Ave & Wrightwood Ave,41.93,-87.74,casual,129,98.81560219758641
N Damen Ave & W Chicago Ave,41.9,-87.68,casual,129,98.82300863107865
Kedzie Ave & 24th St,41.8482035434375,-87.70543183046875,casual,128,98.83035765035778
Ashland Ave & McDowell Ave,41.8088677084127,-87.66452948420635,casual,126,98.83759184121065
Central Ave & Lake St,41.887666275,-87.76546393849206,casual,126,98.84482603206354
Lawndale Ave & 111th St,41.69192222277778,-87.71239442420635,casual,126,98.85206022291642
Austin Blvd & Chicago Ave,41.894869198079995,-87.77465789184,casual,125,98.85923699955619
Rainbow Beach,41.75787849528,-87.54938410824,casual,125,98.86641377619596
Lawndale Ave & 30th St,41.84,-87.72,casual,124,98.87353313862259
Central Ave & Chicago Ave,41.89495686308943,-87.76490475097562,casual,123,98.88059508683614
Pulaski Rd & 21st St,41.85,-87.72,casual,123,98.88765703504966
Seeley Ave & Garfield Blvd,41.79409282479675,-87.67548340723577,casual,123,98.89471898326319
Racine Ave & Garfield Blvd,41.794195214999995,-87.65548044532787,casual,122,98.90172351726359
Prospect Sq & 91st St,41.728222195619836,-87.6671920146281,casual,121,98.90867063705089
Commercial Ave & 83rd St,41.744617913,-87.55120723791667,casual,120,98.91556034262506
Malcolm X College,41.87761295275,-87.67389449675,casual,120,98.92245004819922
Indiana Ave & 103rd St,41.70717297907563,-87.61841321042017,casual,119,98.92928233956029
Halsted St & 78th St,41.75250750307693,-87.64381331264957,casual,117,98.93599980249512
Cottage Grove Ave & 83rd St,41.74343873146552,-87.60484900413793,casual,116,98.9426598512168
Harding Ave & 26th St,41.84,-87.72,casual,116,98.94931989993852
Kenosha & Wellington,41.93,-87.73,casual,116,98.95597994866021
Wells St & Institute Pl,41.897415899310346,-87.6344263787069,casual,116,98.96263999738191
Shields Ave & 43rd St,41.816204838260866,-87.63465405678261,casual,115,98.9692426318905
Ashland Ave & Pershing Rd,41.82345706368421,-87.66558268008772,casual,114,98.97578785218596
Chicago State University,41.71896588833334,-87.60832628438597,casual,114,98.98233307248142
Eggleston Ave & 69th St,41.76889998637168,-87.6358671717699,casual,113,98.98882087856377
Hamlin Ave & Fullerton Ave,41.92027027027027,-87.72,casual,111,98.99519385621988
State St & 54th St,41.79648721045454,-87.62555199127273,casual,110,99.00150941966287
Houston Ave & 92nd St,41.72825435083333,-87.54969597092592,casual,108,99.00771015467963
Christiana Ave & Belmont Ave,41.94,-87.71,casual,107,99.01385347548327
Dauphin Ave & 87th St,41.736534232710284,-87.60125985934579,casual,107,99.01999679628692
Kostner Ave & Armitage Ave,41.92,-87.74,casual,107,99.02614011709055
Narragansett Ave & School St,41.94,-87.79,casual,107,99.0322834378942
Sacramento Blvd & Franklin Blvd,41.890855721962616,-87.70262809046729,casual,107,99.03842675869782
Halsted St & 51st St,41.801824500857144,-87.64521637990477,casual,105,99.04445525107522
Hale Ave & 107th St,41.6992104825,-87.66889980086539,casual,104,99.0504263292395
Lockwood Ave & Wrightwood Ave,41.93,-87.76,casual,103,99.05633999319068
W 103rd St & S Avers Ave,41.71,-87.72,casual,103,99.06225365714184
Francisco Ave & 47th St,41.81,-87.7,casual,101,99.06805249266677
Central Ave & Roscoe St,41.94,-87.77,casual,100,99.07379391397858
Kedzie Ave & Harrison St,41.8736101254,-87.70487648699999,casual,100,99.07953533529039
Stony Island Ave & 90th St,41.7313972756,-87.585750606,casual,100,99.0852767566022
Stewart Ave & 63rd St,41.779837094343435,-87.63477378777777,casual,99,99.09096076370089
Pulaski Rd & Armitage Ave,41.92,-87.73,casual,97,99.09652994237335
Sacramento Ave & Pershing Rd,41.82,-87.7,casual,97,99.10209912104581
Baltimore Ave & 87th St,41.737338065625,-87.54850292791667,casual,96,99.10761088550515
Pulaski Rd & Lake St,41.885684789895834,-87.7267594378125,casual,96,99.1131226499645
Lamon Ave & Armitage Ave,41.92,-87.75,casual,95,99.1185770002107
Laramie Ave & Kinzie St,41.88782866589474,-87.75557189273684,casual,95,99.12403135045693
Central Park Ave & Ohio St,41.89,-87.72,casual,94,99.12942828649003
Kilbourn & Belden,41.92,-87.74,casual,94,99.13482522252313
Avenue O & 118th St,41.683496416344084,-87.53944464989247,casual,93,99.14016474434312
Central Park Blvd & 5th Ave,41.87567763193548,-87.71547739666667,casual,93,99.14550426616312
Kilpatrick Ave & Grand Ave,41.91,-87.74,casual,93,99.15084378798309
Ashland Ave & 63rd St,41.77937481586956,-87.66485475923913,casual,92,99.15612589558995
Halsted St & 96th St,41.720636983913046,-87.6436275401087,casual,92,99.16140800319683
Stewart Ave & 83rd St,41.74371800913043,-87.6340880426087,casual,92,99.16669011080369
Pulaski Rd & Congress Pkwy,41.87439171989011,-87.72604147637362,casual,91,99.17191480419744
Washtenaw Ave & Superior St,41.89,-87.69527472527473,casual,91,99.17713949759118
Exchange Ave & 79th St,41.751722790555554,-87.552815382,casual,90,99.18230677677182
Maryland Ave & 104th St,41.71,-87.6,casual,90,99.18747405595245
Damen Ave & 51st St,41.80091376011236,-87.67466993483146,casual,89,99.19258392091996
Green St & Madison Ave*,41.88185179775281,-87.6488413,casual,89,99.19769378588748
Komensky Ave & 31st St,41.84,-87.73,casual,89,99.20280365085499
Orange & Addison,41.94,-87.82,casual,89,99.2079135158225
Vernon Ave & 75th St,41.75836387617978,-87.61413727067415,casual,89,99.21302338079
Fullerton & Monitor,41.92,-87.77,casual,88,99.21807583154441
Kedzie Ave & 45th St,41.81,-87.7,casual,88,99.2231282822988
St Louis Ave & Norman Bobbins Ave,41.79,-87.71,casual,88,99.2281807330532
California Ave & 26th St,41.84369699011494,-87.6949359791954,casual,87,99.23317576959447
Rockwell St & 57th St,41.79,-87.69,casual,87,99.23817080613574
St Louis Ave & 59th St,41.79,-87.71,casual,87,99.24316584267702
Elizabeth St & 92nd St,41.72680926164706,-87.65429077376471,casual,85,99.24804605079206
Hegewisch Metra Station,41.64851892988235,-87.54611760011765,casual,85,99.2529262589071
MTV Hubbard St,41.89,-87.68,casual,85,99.25780646702214
Latrobe Ave & Chicago Ave,41.894736567857144,-87.7568870129762,casual,84,99.26262926092406
Loomis St & 89th St,41.73243502857143,-87.65808812154762,casual,84,99.26745205482598
Oak Park & Wellington,41.93,-87.8,casual,84,99.2722748487279
Ellis Ave & 83rd St,41.74412491518073,-87.59905001156626,casual,83,99.2770402284167
Kedzie Ave & 52nd St,41.8,-87.7,casual,83,99.28180560810551
Monticello Ave & Belmont Ave,41.94,-87.72,casual,83,99.2865709877943
Marquette Ave & 89th St,41.73490134597561,-87.55980244707317,casual,82,99.29127895327
Long Ave & Belmont Ave,41.94,-87.76,casual,81,99.29592950453257
Torrence Ave & 106th St,41.70282307925926,-87.55977776,casual,81,99.30058005579512
Western Ave & Ardmore Ave,41.99,-87.69,casual,81,99.30523060705771
Central Ave & Harrison St,41.872996998750004,-87.76449824925,casual,80,99.30982374410715
Doty Ave & 111th St,41.695021259375,-87.598711481375,casual,80,99.3144168811566
Laramie Ave & Madison St,41.8802121915,-87.75535026025,casual,80,99.31901001820604
Lowell Ave & Elston Ave,41.97,-87.74,casual,80,99.3236031552555
Mozart Elementary School,41.92,-87.72,casual,80,99.32819629230495
Mulligan Ave & Wellington Ave,41.93,-87.78,casual,80,99.33278942935439
Vernon Ave & 107th St,41.7001436755,-87.612283424,casual,80,99.33738256640385
Cicero Ave & Quincy St,41.87761502113924,-87.74540536240507,casual,79,99.34191828924017
Eastlake Ter & Howard St,42.01919318518987,-87.66432981379747,casual,79,99.3464540120765
Tripp Ave & 65th St,41.770126582278486,-87.73,casual,79,99.35098973491283
Ashland Ave & Garfield Blvd,41.79286901538462,-87.66443699782052,casual,78,99.35546804353605
Lawndale Ave & Diversey Ave,41.93,-87.72,casual,78,99.35994635215927
Shabbona Park,41.94,-87.8,casual,78,99.36442466078248
Albany Ave & 16th St,41.86,-87.7,casual,77,99.36884555519258
Cicero Ave & Grace St,41.95,-87.75,casual,75,99.37315162117642
Cottage Grove Ave & 111th Pl,41.6917000592,-87.60999988093333,casual,75,99.37745768716029
Halsted St & 56th St,41.7929473016,-87.644995704,casual,75,99.38176375314414
Pulaski & Ann Lurie Pl,41.82,-87.72,casual,75,99.38606981912801
Western & 28th - Velasquez Institute Vaccination Site,41.841075086,-87.6852952976,casual,75,99.39037588511187
Clyde Ave & 87th St,41.73716631527027,-87.57271993108108,casual,74,99.3946245368826
Cottage Grove Ave & 78th St,41.75317807534247,-87.60502533246574,casual,73,99.39881577444024
Kenneth Ave & 50th St,41.8,-87.73,casual,73,99.40300701199784
Jeffery Blvd & 76th St,41.75630306208333,-87.57730643111111,casual,72,99.40714083534236
Kedzie Ave & 110th St,41.69239184708333,-87.70095863833333,casual,72,99.41127465868685
Major Taylor Trail & 124th St,41.66869902875,-87.63712865236111,casual,72,99.41540848203137
Phillips Ave & 83rd St,41.74453074916667,-87.56506647291667,casual,72,99.41954230537587
Central Ave & Madison St,41.880121999436625,-87.76323665394366,casual,71,99.42361871450726
Eberhart Ave & 91st St,41.73171596507042,-87.61317863985916,casual,71,99.42769512363864
Homan Ave & 65th St,41.78,-87.71,casual,71,99.43177153277001
Midway Orange Line,41.79,-87.74,casual,71,99.43584794190141
Washtenaw Ave & Peterson Ave,41.99,-87.7,casual,71,99.4399243510328
Milwaukee Ave & Haussen Ct,41.94,-87.72,casual,70,99.44394334595107
Spaulding Ave & Evergreen Ave,41.90985714285714,-87.71,casual,70,99.44796234086934
Spaulding Ave & North Ave,41.91,-87.71,casual,70,99.4519813357876
Meade Ave & Diversey Ave,41.93,-87.78,casual,69,99.45594291649275
State St & 123rd St,41.67065419971014,-87.62264393855072,casual,69,99.4599044971979
Archer Ave & 43rd St,41.82,-87.7,casual,68,99.46380866368993
California & 16th St,41.86,-87.7,casual,68,99.46771283018197
Hamlin Ave & 62nd Pl,41.78,-87.72,casual,68,99.471616996674
State St & Pershing Rd,41.82302836044117,-87.62657506941176,casual,68,99.47552116316602
Vincennes Ave & 75th St,41.757969073235294,-87.63120907044117,casual,68,99.47942532965806
Artesian Ave & 55th St,41.79,-87.69,casual,67,99.48327208193697
Constance Ave & 95th St,41.72225117477612,-87.57896600328358,casual,67,99.48711883421588
Greenwood Ave & 91st St,41.72844383597015,-87.5972823477612,casual,67,99.4909655864948
Stony Island Ave & 82nd St,41.746562544328356,-87.58599352089553,casual,67,99.49481233877371
Stony Island Ave & South Chicago Ave,41.75117150940299,-87.58533561925373,casual,67,99.49865909105262
Cornell Dr & Hayes Dr,41.78046306818182,-87.58501903787878,casual,66,99.50244842911842
Torrence Ave & 126th Pl,41.666307451692305,-87.55721004692309,casual,65,99.5061803529711
Virginia Ave & Catalpa Ave,41.98,-87.70461538461538,casual,65,99.50991227682377
Bennett Ave & 79th St,41.75180441796875,-87.578503616875,casual,64,99.51358678646334
Karlov Ave & Madison St,41.8816779865625,-87.727609488125,casual,64,99.5172612961029
Major Taylor Trail & 115th St,41.684939458593746,-87.645289858125,casual,64,99.52093580574245
Ashland Ave & 74th St,41.759473013333334,-87.6645136868254,casual,63,99.52455290116889
Avenue O & 134th St,41.65188055619048,-87.5396526695238,casual,63,99.52816999659534
Dauphin Ave & 103rd St,41.70728232206349,-87.60767702301588,casual,63,99.53178709202177
Greenwood Ave & 79th St,41.75129577571429,-87.59753391523809,casual,63,99.53540418744822
Homewood Ave & 115th St,41.68610284809524,-87.67136922650793,casual,63,99.53902128287466
Maplewood Ave & 59th St,41.79,-87.69,casual,63,99.5426383783011
Michigan Ave & 71st St,41.765294385555556,-87.62174716492063,casual,63,99.54625547372754
Halsted St & 73rd St,41.76162751096774,-87.64411774999999,casual,62,99.54981515494087
Kostner Ave & Lake St,41.88593029887097,-87.73539857274194,casual,62,99.55337483615419
State St & 76th St,41.75980007612903,-87.62746220919355,casual,62,99.55693451736751
Fairfield Ave & 44th St,41.81,-87.69,casual,61,99.56043678436771
Morgan St & Pershing Rd,41.823626784262295,-87.65090970557377,casual,61,99.56393905136792
Long Ave & Belden Ave,41.92,-87.76,casual,60,99.56738390415501
Pulaski Rd & 60th St,41.78,-87.72,casual,60,99.57082875694209
Washtenaw Ave & Madison St,41.88,-87.69,casual,60,99.57427360972918
Ashland Ave & 50th St,41.80301788847458,-87.66469271881355,casual,59,99.57766104830316
Cicero Ave & Wrightwood Ave,41.93,-87.75,casual,59,99.58104848687712
Evans Ave & 75th St,41.758496861694915,-87.60642244220338,casual,59,99.58443592545109
Kostner Ave & 63rd St,41.78,-87.73,casual,58,99.58776594981194
N Clark St & W Elm St,41.9,-87.63,casual,58,99.59109597417279
California Ave & Marquette Rd,41.77,-87.69,casual,57,99.59436858432052
Central Ave & Parker Ave,41.93,-87.77,casual,57,99.59764119446825
Kildare Ave & 47th St,41.81,-87.73,casual,57,99.60091380461598
Komensky Ave & 55th St,41.79,-87.72,casual,57,99.60418641476372
Mason Ave & Belmont Ave,41.94,-87.77,casual,57,99.60745902491145
MLK Jr Dr & 83rd St,41.74311199736842,-87.61480239754385,casual,57,99.6107316350592
Racine Ave & 109th Pl,41.69,-87.65,casual,57,99.61400424520693
Halsted St & 111th St,41.69637659428572,-87.642408298571425,casual,56,99.61721944114153
Kenton Ave & Madison St,41.88070395625,-87.74102930375,casual,56,99.62043463707614
La Villita Park (Albany/30th),41.84,-87.7,casual,56,99.62364983301076
Altgeld Gardens,41.65673876909091,-87.598810824,casual,55,99.62680761473226
Halsted St & 69th St,41.769059416000005,-87.64461273781818,casual,55,99.62996539645376
South Chicago Ave & 83rd St,41.74392876581818,-87.57521920745455,casual,55,99.63312317817525
Western Blvd & 49th St,41.802181818181815,-87.68,casual,55,99.63628095989675
Ashland Ave & 78th St,41.758570863888885,-87.66488047537037,casual,54,99.63938132740513
Halsted St & 104th St,41.70515908,-87.64242383777777,casual,54,99.6424816949135
Ewing Ave & Burnham Greenway,41.714821753207545,-87.53813578773585,casual,53,99.64552464820876
Hamlin Ave & Montrose Ave,41.96,-87.72,casual,53,99.64856760150403
Hyde Park Blvd & 55th St,41.79811320754717,-87.58150943396227,casual,53,99.65161055479929
Loomis Blvd & 84th St,41.74085368698113,-87.65719753943397,casual,53,99.65465350809455
Richmond St & Lincoln Ave,41.99,-87.7,casual,53,99.6576964613898
Vincennes Ave & 104th St,41.70493148830189,-87.65692615207547,casual,53,99.66073941468507
East End Ave & 87th St,41.73680353176471,-87.58280824843138,casual,51,99.6636675395541
Eberhart Ave & 131st St,41.66185054823529,-87.6125222472549,casual,51,99.66659566442311
Loomis St & Lexington St*,41.87217527666667,-87.66152751235295,casual,51,99.66952378929214
Washtenaw Ave & Devon Ave,42,-87.7,casual,51,99.67245191416116
Campbell Ave & 51st St,41.8,-87.69,casual,50,99.67532262481707
Jonathan Y Scammon Public School,41.94,-87.73,casual,50,99.67819333547297
Racine Ave & 65th St,41.7775983458,-87.65428326520001,casual,50,99.68106404612888
Throop St & 52nd St,41.799662497199996,-87.6571953776,casual,50,99.68393475678478
Milwaukee Ave & School St,41.94,-87.73,casual,49,99.68674805322757
Western Ave & Lake St,41.88,-87.69,casual,49,99.68956134967036
California Ave & 36th St,41.83,-87.69,casual,48,99.69231723190003
Eggleston Ave & 92nd St,41.72770164958333,-87.63464556125,casual,48,99.6950731141297
Western Ave & Jarvis Ave,42.02,-87.69,casual,48,99.69782899635936
Kostner Ave & Adams St,41.8779231987234,-87.73591182829787,casual,47,99.70052746437592
Monticello Ave & Chicago Ave,41.9,-87.72,casual,47,99.70322593239247
Cicero Ave & Flournoy St,41.87213258782609,-87.74663418956521,casual,46,99.7058669861959
Oketo Ave & Addison St,41.94130434782608,-87.81,casual,46,99.70850803999933
Damen Ave & 33rd St,41.83,-87.68,casual,44,99.71103426537653
Elizabeth St & 47th St,41.80839698340909,-87.65653027090909,casual,44,99.71356049075372
Halsted St & 59th St,41.78755166045455,-87.64487481795454,casual,44,99.71608671613093
Kedzie Ave & Argyle St,41.97,-87.71,casual,44,99.71861294150813
Oglesby Ave & 100th St,41.71338307772727,-87.56584651045455,casual,44,99.72113916688532
Racine Ave & 61st St,41.78318710181818,-87.65436856431818,casual,44,99.72366539226252
Francisco Ave & Hollywood Ave,41.98,-87.7,casual,43,99.7261342034266
Spaulding Ave & 63rd St,41.78,-87.71,casual,43,99.728603014590675
Hoyne Ave & 34th St,41.83,-87.68,casual,42,99.73101441154164
Pulaski Rd & Fullerton Ave,41.92,-87.73,casual,42,99.7334258084926
Robert Fulton Elementary School,41.8,-87.67,casual,42,99.73583720544356
Woodlawn Ave & 75th St,41.75916968642857,-87.59575415809525,casual,42,99.73824860239452
Rhodes Ave & 71st St,41.7660011197561,-87.61172415951219,casual,41,99.74060258513236
Commercial Ave & 100th St,41.71331573175,-87.55111065074999,casual,40,99.74289915365708
Laramie Ave & Gladys Ave,41.87727932525,-87.75602180475,casual,40,99.74519572218182
Rockwell Ave & Touhy Ave,42.01,-87.6995,casual,40,99.74749229070653
Wabash Ave & 83rd St,41.7435130245,-87.6228164025,casual,40,99.74978885923126
Eli Whitney Public School,41.84,-87.72974358974359,casual,39,99.75202801354285
Kedzie Ave & 104th St,41.7,-87.7,casual,39,99.75426716785447
May St & 69th St,41.768947178205124,-87.65294182051282,casual,39,99.75650632216609
Central Park Ave & Douglas Blvd,41.86,-87.72,casual,38,99.75868806226457
Hamlin Ave & Grand Ave,41.9,-87.72,casual,38,99.76086980236305
Harlem Ave & Grace St,41.95,-87.81,casual,38,99.76305154246154
Harold Washington Park,41.8,-87.58,casual,38,99.76523328256003
Keystone Ave & North Ave,41.91,-87.73,casual,38,99.76741502265853
Whipple St & Roosevelt Rd,41.87,-87.7,casual,37,99.76953934854389
Bradley Park,41.717883638055554,-87.56459717444444,casual,36,99.77160626021615
Meade Ave & Addison St,41.95,-87.78,casual,36,99.77367317188839
Karlov Ave & Kamerling Ave,41.91,-87.73,casual,35,99.77568266934753
Kenton Ave & Palmer St,41.92,-87.74,casual,35,99.77769216680666
Milwaukee Ave & Addison St,41.95,-87.73942857142856,casual,35,99.7797016642658
Sacramento Ave & Devon Ave,42,-87.7,casual,35,99.78171116172493
Hyde Park Blvd & 53rd St,41.8,-87.58058823529412,casual,34,99.78366324497094
Keystone Ave & Irving Park Rd,41.95,-87.73,casual,34,99.78561532821696
Kildare Ave & 26th St,41.84,-87.73,casual,34,99.78756741146297
Kildare Ave & 55th St,41.79,-87.73,casual,34,99.78951949470898
Richmond St & 59th St,41.79,-87.7,casual,34,99.79147157795501
Ada St & 113th St,41.694933413939395,-87.65814465666666,casual,33,99.7933662469879
Central Park & Augusta Blvd,41.9,-87.72,casual,33,99.7952609160208
Halsted St & 63rd St,41.77940324666667,-87.64448629575757,casual,33,99.7971555850537
Lafayette Ave & 95th St,41.72,-87.62121212121212,casual,33,99.7990502540866
Kilbourn Ave & Fullerton Ave,41.92,-87.74,casual,32,99.80088750890637
Kildare & Cermak,41.85,-87.73,casual,32,99.80272476372616
Michigan Ave & 114th St,41.6870156278125,-87.621076066875,casual,32,99.80456201854594
Greenwood Ave & 97th St,41.71871607967742,-87.5970050616129,casual,31,99.80634185915261
Lamon Ave & Chicago Ave,41.89967741935484,-87.75,casual,31,99.80812169975927
Narragansett & McLean,41.92,-87.79,casual,31,99.80990154036591
Sacramento Ave & 25th St,41.85,-87.7,casual,31,99.81168138097259
Tripp Ave & 31st St,41.84,-87.73,casual,31,99.81346122157925
Keeler Ave & Roosevelt Rd,41.87,-87.73,casual,30,99.81518364797279
Kimbark Ave & 67th St,41.77,-87.59,casual,30,99.81690607436633
Leamington Ave & Hirsch St,41.91,-87.75,casual,30,99.81862850075987
Western Ave & Devon Ave,42,-87.69,casual,30,99.82035092715343
Albany Ave & Douglas Blvd,41.86,-87.7,casual,29,99.82201593933384
Avenue L & 114th St,41.69,-87.54,casual,29,99.82368095151428
Campbell Ave & Montrose Ave (Temp),41.96154476896552,-87.69301953965517,casual,29,99.8253459636947
Kildare Ave & Division St,41.9,-87.73,casual,29,99.82701097587511
Lawndale Ave & 16th St,41.86,-87.72,casual,29,99.82867598805555
Nordica & Medill,41.92,-87.8,casual,29,99.83034100023596
Roscoe & Harlem,41.94,-87.81,casual,29,99.8320060124164
Summit Ave & 86th St,41.73784971275862,-87.64489439586207,casual,29,99.83367102459682
Bloomingdale Ave & Harlem Ave,41.91,-87.81,casual,28,99.83527862256413
Elizabeth St & 59th St,41.78973642107143,-87.654700905,casual,28,99.83688622053144
Kedzie Ave & 61st Pl,41.78,-87.7,casual,28,99.83849381849875
Lockwood Ave & Diversey Ave,41.93,-87.76,casual,28,99.84010141646606
Yates Blvd & 93rd St,41.72616512821429,-87.56628297321429,casual,28,99.84170901443335
Spaulding Ave & 16th St,41.86,-87.71,casual,27,99.84325919818755
Springfield Ave & 47th St,41.81,-87.72,casual,27,99.84480938194173
Major Ave & Bloomingdale Ave,41.91,-87.77,casual,26,99.84630215148282
Marshfield Ave & 59th St,41.78681450692308,-87.66620482423076,casual,26,99.84779492102388
Walden Pkwy & 103rd St,41.71,-87.67,casual,26,99.84928769056495
Wentworth Ave & 104th St,41.70531187807693,-87.62919040230769,casual,26,99.85078046010602
Woodlawn & 103rd - Olive Harvey Vaccination Site,41.71,-87.59,casual,26,99.8522732296471
Calumet Ave & 71st St,41.7655059644,-87.6169247696,casual,25,99.85370858497504
Christiana Ave & Archer Ave,41.81,-87.71,casual,25,99.855143940303
Lavergne Ave & 46th St,41.81,-87.75,casual,25,99.85657929563095
Long Ave & North Ave,41.91,-87.76,casual,25,99.8580146509589
Plainfield & Irving Park,41.95,-87.83,casual,25,99.85945000628685
Sacramento Blvd & Fulton Ave,41.89,-87.7,casual,25,99.8608853616148
California Ave & Ogden Ave,41.86,-87.7,casual,24,99.86226330272964
Carpenter St & 63rd St,41.77987925708334,-87.65090234791667,casual,24,99.86364124384448
Menard Ave & Dakin St - midblock,41.95,-87.77,casual,24,99.86501918495931
Troy Ave & 27th St,41.84,-87.7,casual,24,99.86639712607415
Kedzie Ave & 54th St - SE,41.79,-87.7,casual,23,99.86771765297587
Lorel Ave & Grand Ave,41.92,-87.76,casual,23,99.86903817987758
Mozart St & Jackson Blvd,41.88,-87.7,casual,23,99.8703587067793
Augusta Blvd & Laramie Ave,41.9,-87.76,casual,22,99.87162181946789
Avers Ave & Irving Park Rd,41.95,-87.72090909090909,casual,22,99.8728849321565
California Ave & Touhy Ave - NW,42.01,-87.7,casual,22,99.87414804484509
Lake Shore Dr & Hayes Dr,41.78,-87.57,casual,22,99.87541115753369
NewHastings,41.92461739590909,-87.68885062727273,casual,22,99.87667427022228
Rockwell St & 63rd St,41.78,-87.69,casual,22,99.87793738291089
Laramie Ave & Fullerton Ave,41.92,-87.76,casual,21,99.87914308138637
Lavergne Ave & Division St,41.9,-87.75,casual,21,99.88034877986185
Menard Ave & Division St,41.9,-87.77,casual,21,99.88155447833734
Sacramento Ave & Greenleaf Ave,42.01,-87.7,casual,21,99.88276017681281
Woodlawn Ave & 63rd St N,41.78,-87.6,casual,21,99.8839658752883
Newcastle Ave & Belden Ave,41.92,-87.8,casual,20,99.88511415955065
Wood St & 103rd St,41.71,-87.67,casual,20,99.88626244381301
Avers Ave & Archer Ave,41.8,-87.72,casual,19,99.88735331386226
California Ave & Devon Ave - NW,42,-87.7,casual,19,99.8884441839115
Damen Ave & 74th St,41.75927079473684,-87.67363728157895,casual,19,99.88953505396074
Laramie Ave & Belmont Ave,41.94,-87.75947368421053,casual,19,99.89062592401
Pulaski Rd & 44th St,41.81,-87.72,casual,19,99.89171679405923
South Chicago Ave & Elliot Ave,41.74734538631579,-87.58003363105263,casual,19,99.89280766410849
State ST & 42nd St,41.82,-87.63,casual,19,99.89389853415773
Troy St & Jackson Blvd,41.88,-87.7,casual,19,99.89498940420697
Homan Ave & Fillmore St,41.87,-87.71,casual,18,99.8960228600431
Kimball Ave & Carmen Ave,41.97,-87.71,casual,18,99.89705631587921
Laramie Ave & Grand Ave,41.92,-87.76,casual,18,99.89808977171535
Marquette Ave & 79th St,41.75,-87.56,casual,18,99.89912322755148
Martin Luther King Dr & 111th St,41.69,-87.61,casual,18,99.90015668338759
Woodlawn Ave & 63rd St - NE,41.78,-87.6,casual,18,99.90119013922373
Ashland Ave & 66th St,41.77407235705882,-87.66380937,casual,17,99.90216618084673
Cicero Ave & North Ave,41.91,-87.75,casual,17,99.90314222246974
Homewood Ave & Monterey Ave,41.69,-87.67,casual,17,99.90411826409274
Kedvale Ave & Avondale Ave,41.95,-87.73,casual,17,99.90509430571576
McCormick Blvd & Devon Ave,42,-87.71,casual,17,99.90607034733875
Nagle Ave & Belmont Ave,41.94,-87.79,casual,17,99.90704638896177
Rockwell & Division,41.9,-87.69,casual,17,99.9080224305848
Avondale Ave & Addison St,41.95,-87.72,casual,16,99.90894105799467
Drake Ave & Leland Ave,41.97,-87.72,casual,16,99.90985968540456
Kildare Ave & Chicago Ave,41.9,-87.73,casual,16,99.91077831281446
Kostner Ave & North Ave,41.91,-87.74,casual,16,99.91169694022433
Sawyer Ave & Lawrence Ave,41.97,-87.71,casual,16,99.91261556763423
Cicero Ave & Cortland St - midblock,41.92,-87.75,casual,15,99.913476780831
Cicero Ave & Roscoe St,41.94,-87.75,casual,15,99.91433799402778
Fullerton Ave & Narragansett Ave,41.92,-87.79,casual,15,99.91519920722455
N Narragansett Ave & Grand Ave,41.92,-87.78266666666667,casual,15,99.91606042042132
St Louis Ave & Berteau Ave,41.96,-87.72,casual,15,99.91692163361809
Steelworkers Park,41.74,-87.53,casual,15,99.91778284681486
Western Ave & 92nd Pl,41.73,-87.68,casual,15,99.91864406001163
Wood St & 47th St,41.81,-87.67,casual,15,99.91950527320842
Central Ave & Corcoran Pl,41.89,-87.76857142857142,casual,14,99.92030907219205
Grand Ave & North Ave,41.91,-87.73428571428572,casual,14,99.92111287117571
Karlov Ave & Milwaukee Ave,41.94,-87.73,casual,14,99.92191667015936
Kedzie Ave & 58th St,41.79,-87.7,casual,14,99.92272046914302
Spaulding Ave & Bryn Mawr Ave,41.98,-87.71,casual,14,99.92352426812667
Spaulding Ave & Foster Ave,41.98,-87.71,casual,14,99.92432806711032
Western Ave & 28th St,41.841517519285716,-87.68514930071429,casual,14,99.92513186609398
Western Ave & 62nd St,41.78,-87.68,casual,14,99.92593566507763
Austin Ave & Roscoe St,41.94,-87.78,casual,13,99.92668204984817
Chopin Park,41.94,-87.76,casual,13,99.9274284346187
Cicero Ave & Altgeld St,41.93,-87.75,casual,13,99.92817481938924
Kolin Ave & Archer Ave,41.8,-87.73,casual,13,99.92892120415976
North Ave & New England Ave,41.91,-87.8,casual,13,99.92966758893031
Western Ave & 96th St,41.72,-87.68,casual,13,99.93041397370085
Avers Ave & Ogden Ave,41.85,-87.72,casual,12,99.93110294425827
Bell Ave & 95th St,41.72,-87.68,casual,12,99.93179191481568
Menard Ave & Grand Ave,41.92,-87.77,casual,12,99.9324808853731
Oketo Ave & Belmont Ave,41.94,-87.81,casual,12,99.93316985593052
Pulaski & 52nd,41.8,-87.72,casual,12,99.93385882648793
Pulaski Rd & 51st Rd,41.8,-87.72,casual,12,99.93454779704535
Albany Ave & 63rd St,41.78,-87.7,casual,11,99.93517935338964
Hoyne Ave & 110th Pl,41.69,-87.67,casual,11,99.93581090973395
Jensen Park,41.96454545454545,-87.72,casual,11,99.93644246607825
Kedvale Ave & Addison St,41.95,-87.73,casual,11,99.93707402242255
Kedzie Ave & 54th St - SW,41.8,-87.7,casual,11,99.93770557876684
Komensky Ave & 59th St,41.79,-87.72,casual,11,99.93833713511114
Leclaire Ave & Division St,41.9,-87.75,casual,11,99.93896869145544
Melvina Ave & Belmont Ave,41.94,-87.78,casual,11,99.93960024779975
Menard Ave & North Ave,41.91,-87.77,casual,11,99.94023180414405
Olive Harvey College,41.70954418363636,-87.59022229454546,casual,11,99.94086336048834
Parkside Ave & Armitage Ave,41.92,-87.77,casual,11,99.94149491683264
Sacramento Blvd & Polk St,41.87,-87.7,casual,11,99.94212647317694
Tripp Ave & 15th St,41.86,-87.73,casual,11,99.94275802952124
Abbott Park,41.72,-87.62,casual,10,99.94333217165241
Austin Ave & Wrightwood Ave,41.93,-87.78,casual,10,99.9439063137836
Campbell Ave & Pratt Blvd,42.01,-87.69,casual,10,99.94448045591479
Cicero Ave & Wellington Ave,41.94,-87.75,casual,10,99.94505459804597
Greenwood Ave & Lake Park Ave,41.82,-87.6,casual,10,99.94562874017716
Kostner Ave & Diversey Ave,41.93,-87.74,casual,10,99.94620288230833
Linder Ave & Belmont Ave,41.94,-87.76,casual,10,99.9467770244395
Neva Ave & Grand Ave,41.92,-87.801,casual,10,99.94735116657068
Western Ave & 100th St,41.71,-87.68,casual,10,99.94792530870187
Christiana Ave & 55th St,41.79,-87.71,casual,9,99.94844203661994
Claremont Ave & 71st St,41.76,-87.68,casual,9,99.94895876453799
Kedzie Ave & 63rd St,41.78,-87.7,casual,9,99.94947549245606
Kedzie Ave & 64th St - SW,41.78,-87.7,casual,9,99.94999222037411
Kedzie Ave & Archer Ave,41.81,-87.7,casual,9,99.95050894829218
Komensky Ave & 26th St,41.84,-87.73,casual,9,99.95102567621025
Lawndale Ave & 23rd St,41.85,-87.72,casual,9,99.95154240412832
Narragansett Ave & Fullerton Ave,41.92,-87.78222222222223,casual,9,99.95205913204637
Prairie Ave & 47th St - midblock,41.81,-87.62,casual,9,99.95257585996444
Racine Ave & 76th,41.76,-87.65111111111112,casual,9,99.9530925878825
S Michigan Ave & E 118th St,41.68,-87.62,casual,9,99.95360931580056
Walden Pkwy & 99th St,41.71,-87.67,casual,9,99.95412604371863
532 E 43rd St,41.82,-87.61,casual,8,99.95458535742358
California Ave & Devon Ave - NE,42,-87.7,casual,8,99.95504467112852
Colfax Ave & 83rd St,41.74,-87.56,casual,8,99.95550398483346
Divvy Valet - Oakwood Beach,41.8244349675,-87.5981363275,casual,8,99.9559632985384
Emerald Ave & 43rd St,41.82,-87.64,casual,8,99.95642261224336
King Dr & 115th St,41.69,-87.61,casual,8,99.9568819259483
King Dr & Oakwood Blvd,41.82,-87.62,casual,8,99.95734123965325
Springfield Ave & 63rd St,41.78,-87.72,casual,8,99.95780055335818
Western Ave & 79th St,41.75,-87.68,casual,8,99.95825986706312
Woodlawn Ave & 63rd St - SE,41.78,-87.6,casual,8,99.95871918076807
111th St - Morgan Park Metra,41.69,-87.67,casual,7,99.9591210802599
Ashland Ave & 83rd St,41.74,-87.66,casual,7,99.95952297975172
Central Ave & North Ave,41.91,-87.76857142857142,casual,7,99.95992487924356
Chase Ave & Touhy Ave - NE,42.01,-87.69,casual,7,99.96032677873539
Kedzie Ave & Pershing Rd,41.82,-87.7,casual,7,99.96072867822721
Laramie Ave & Warwick Ave,41.95,-87.76,casual,7,99.96113057771903
Panama Ave & Grace St,41.95,-87.83,casual,7,99.96153247721087
S Wentworth Ave & W 111th St,41.69,-87.63,casual,7,99.96193437670269
Talman Ave & 51st St - midblock,41.8,-87.69,casual,7,99.96233627619452
Tripp Ave & North Ave,41.91,-87.73,casual,7,99.96273817568634
California Ave & Pershing Rd,41.82,-87.69,casual,6,99.96308266096506
Central Ave & George St,41.93,-87.77,casual,6,99.96342714624376
Cottage Grove & 86th St,41.74,-87.60333333333332,casual,6,99.96377163152246
Damen Ave & 47th St,41.81,-87.67666666666668,casual,6,99.96411611680118
Indiana Ave & 133rd St,41.65,-87.62,casual,6,99.96446060207988
Kedvale Ave & 63rd St,41.78,-87.72833333333334,casual,6,99.9648050873586
Pullman - Ross Dress for Less,41.7,-87.6,casual,6,99.9651495726373
Pullman - Walmart,41.7,-87.6,casual,6,99.96549405791602
Rockwell & 111th St,41.69,-87.69,casual,6,99.96583854319472
S Aberdeen St & W 106th St,41.7,-87.65,casual,6,99.96618302847344
Western Ave & 110th St,41.69,-87.68,casual,6,99.96652751375214
Western Ave & 111th St - NW,41.69,-87.68,casual,6,99.96687199903084
63rd & Western Ave - north corner,41.78,-87.68,casual,5,99.96715907009643
Evans Ave & 63rd St,41.78,-87.61,casual,5,99.96744614116203
Halsted St & 95th St - SE,41.72,-87.64,casual,5,99.96773321222761
Lafayette Ave & 87th St - SW,41.74,-87.63,casual,5,99.96802028329321
Langley Ave & 79th St,41.75,-87.61,casual,5,99.9683073543588
Latrobe Ave & Lake St,41.89,-87.76,casual,5,99.9685944254244
Lawndale Ave & 63rd St,41.78,-87.71199999999999,casual,5,99.96888149648998
Marquette Rd & 67th St,41.77,-87.61,casual,5,99.96916856755558
Normal Ave & 111th St,41.69,-87.638,casual,5,99.96945563862116
Pulaski Rd & 41st,41.82,-87.722,casual,5,99.96974270968676
Sawyer Ave & Bryn Mawr Ave - SW,41.98,-87.71,casual,5,99.97002978075234
Strohacker Park,41.79,-87.73,casual,5,99.97031685181793
Washtenaw Ave & 63rd St,41.78,-87.69,casual,5,99.97060392288353
Wilton Ave & Diversey Pkwy - Charging,41.932348286,-87.652704598,casual,5,99.97089099394911
Winchester Ave & 87th St,41.74,-87.67,casual,5,99.97117806501471
Yates Blvd & Exchange Ave,41.766,-87.57,casual,5,99.9714651360803
63rd & Western Ave - south corner,41.78,-87.68,casual,4,99.97169479293278
Archer Park,41.8,-87.74,casual,4,99.97192444978525
Bissell St & Armitage Ave - Charging,41.9182654575,-87.6522067075,casual,4,99.97215410663772
Buffalo Ave & 89th St,41.73,-87.54,casual,4,99.97238376349019
Champlain Ave & 65th St,41.78,-87.61,casual,4,99.97261342034265
Commercial Ave & 89th St,41.73,-87.55,casual,4,99.97284307719512
Cottage Grove Ave & 111th St,41.69,-87.61,casual,4,99.9730727340476
Exchange Ave & 73rd Pl,41.76,-87.56,casual,4,99.97330239090007
Francisco Ave & Touhy Ave,42.01,-87.7,casual,4,99.97353204775254
Halsted St & 64th St,41.78,-87.64,casual,4,99.97376170460502
Hamilton Ave & 95th St,41.72,-87.68,casual,4,99.9739913614575
Harriet E Sayre Public School,41.91,-87.8,casual,4,99.97422101830998
Hiawatha Park,41.94,-87.83,casual,4,99.97445067516244
Homan Ave & 26th St,41.84,-87.71,casual,4,99.97468033201491
Justine St & 87th St,41.74,-87.66,casual,4,99.9749099888674
Kedzie Ave & 61st Pl W,41.78,-87.7,casual,4,99.97513964571986
Legler Regional Library,41.88,-87.73,casual,4,99.97536930257233
Longwood Dr & 111th St,41.69,-87.67,casual,4,99.9755989594248
Mackinaw Ave & 106th St,41.7,-87.54,casual,4,99.97582861627727
McVicker Ave & Grand Ave,41.92,-87.78,casual,4,99.97605827312974
Menard Ave & Belmont Ave,41.94,-87.77,casual,4,99.97628792998222
Morgan St & 87th St,41.74,-87.65,casual,4,99.97651758683469
Newcastle Ave & Belmont Ave,41.94,-87.8,casual,4,99.97674724368716
Penn Elementary School / KIPP Ascend Middle School,41.86,-87.72,casual,4,99.97697690053964
Pubic Rack - Pulaski Rd & 41st,41.82,-87.72,casual,4,99.97720655739211
Pulaski Rd & Grenshaw St,41.87,-87.73,casual,4,99.97743621424459
Sawyer Ave & Bryn Mawr Ave - SE,41.98,-87.71,casual,4,99.97766587109706
Throop St & 58th St,41.79,-87.66,casual,4,99.97789552794953
Western Ave & 106th St - East,41.7,-87.68,casual,4,99.978125184802
Western Ave & 118th St,41.68,-87.68,casual,4,99.97835484165446
Western Ave & 47th Pl,41.81,-87.68,casual,4,99.97858449850693
Woodlawn Ave & 63rd St S,41.78,-87.6,casual,4,99.97881415535942
Zapata Academy,41.84,-87.7325,casual,4,99.97904381221188
Al Raby School,41.89,-87.71666666666667,casual,3,99.97921605485124
Austin Blvd & North Ave,41.91,-87.78,casual,3,99.9793882974906
California Ave & 29th St,41.84,-87.69,casual,3,99.97956054012995
Central Park Ave & Fulton Blvd,41.89,-87.72,casual,3,99.9797327827693
Chase Ave & Touhy Ave - NW,42.01,-87.69,casual,3,99.97990502540866
Christiana Ave & Bryn Mawr Ave,41.98,-87.71,casual,3,99.98007726804802
Cottage Grove Ave & 91st St,41.73,-87.6,casual,3,99.98024951068737
Cottage Grove Ave & 92nd St,41.73,-87.6,casual,3,99.98042175332672
Cottage Grove Ave & 98th St,41.72,-87.6,casual,3,99.98059399596609
Ewing Ave & 96th St,41.72,-87.54,casual,3,99.98076623860544
Fullerton Ave & Lavergne Ave,41.92,-87.75,casual,3,99.98093848124479
Halsted St & 76th St,41.76,-87.64,casual,3,99.98111072388414
Halsted St & 80th St,41.75,-87.64,casual,3,99.9812829665235
Hamlin Ave & Chicago Ave,41.9,-87.72,casual,3,99.98145520916285
Harding Ave & 47th St,41.81,-87.72,casual,3,99.9816274518022
Harvey Ave & North Ave,41.91,-87.78,casual,3,99.98179969444155
Homan Ave & 111th St,41.69,-87.71,casual,3,99.98197193708091
Houston Ave & 91st St,41.73,-87.55,casual,3,99.98214417972027
Hoyne Ave & 51st St,41.8,-87.68,casual,3,99.98231642235962
Jeffery Blvd & 81st St,41.75,-87.57333333333332,casual,3,99.98248866499897
Karlov Ave & 26th St,41.84,-87.73,casual,3,99.98266090763833
Kedzie & 103rd St - East,41.71,-87.7,casual,3,99.98283315027768
Kildare Ave & 63rd St,41.78,-87.73,casual,3,99.98300539291704
Kildare Ave & North Ave,41.91,-87.73,casual,3,99.9831776355564
La Moyne Ave and Leamington Ave,41.91,-87.75,casual,3,99.98334987819575
Lamon Ave & Erie St,41.89,-87.75,casual,3,99.9835221208351
Lawndale Ave & Polk St,41.87,-87.72,casual,3,99.98369436347446
Loomis St & 87th St,41.74,-87.66,casual,3,99.9838666061138
Maplewood Ave & 47th St,41.81,-87.69,casual,3,99.98403884875316
Marshfield Ave & 45th St,41.81,-87.67,casual,3,99.98421109139251
Menard Ave & Madison St,41.88,-87.77,casual,3,99.98438333403186
Michigan Ave & 107th St,41.7,-87.62,casual,3,99.98455557667123
Michigan Ave & 119th St,41.68,-87.62,casual,3,99.98472781931058
Mt Greenwood Library - South,41.69,-87.7,casual,3,99.98490006194993
Peterson Ave & Bernard Ave,41.99,-87.72,casual,3,99.9850723045893
Public  Rack - Albany Ave & 63rd St,41.78,-87.7,casual,3,99.98524454722865
Pulaski Rd & 40th St,41.82,-87.72,casual,3,99.985416789868
Sawyer Ave & 111th St,41.69,-87.7,casual,3,99.98558903250735
Stewart Ave & 123rd St,41.67,-87.63,casual,3,99.98576127514671
Torrence Ave  & 106th St,41.7,-87.56,casual,3,99.98593351778607
Wallace St & 119th St,41.68,-87.64,casual,3,99.98610576042542
WEST CHI-WATSON,41.88226327666667,-87.72722161,casual,3,99.98627800306477
Western Ave & 104th St - East,41.7,-87.68,casual,3,99.98645024570413
Western Ave & 105th St,41.7,-87.68,casual,3,99.98662248834349
Western Ave & 107th Pl,41.7,-87.68,casual,3,99.98679473098284
Western Ave & 111th St - SE,41.69,-87.68,casual,3,99.98696697362219
Albany Ave & 111th St - NW,41.69,-87.7,casual,2,99.98708180204842
Ashland Ave & 45th St,41.81,-87.66499999999999,casual,2,99.98719663047466
Ashland Ave & 45th St - midblock south,41.81,-87.66,casual,2,99.98731145890089
Avenue J & 112th St,41.69,-87.53,casual,2,99.98742628732712
Back of the Yards Park,41.805,-87.66,casual,2,99.98754111575336
Bishop St & 46th St,41.81,-87.66,casual,2,99.98765594417961
Brighton Park Branch Chicago Library,41.82,-87.7,casual,2,99.98777077260584
Buffalo Ave & 133rd St,41.65,-87.54,casual,2,99.98788560103208
California Ave & Touhy Ave - SW,42.01,-87.7,casual,2,99.98800042945831
Calumet Ave & 103rd St,41.71,-87.61500000000001,casual,2,99.98811525788454
Chappel Ave & 71st St,41.77,-87.57499999999999,casual,2,99.988230086310793
Cornell Ave & 87th Pl,41.74,-87.58,casual,2,99.98834491473703
Cottage Grove & 85th St,41.74,-87.61,casual,2,99.98845974316326
Cottage Grove Ave & 75th St,41.76,-87.61,casual,2,99.9885745715895
Cottage Grove Ave & 87th St,41.74,-87.61,casual,2,99.98868940001573
Eggleston Ave & 114th St,41.69,-87.63,casual,2,99.98880422844196
Eggleston Ave & 115th St,41.69,-87.63,casual,2,99.98891905686821
Ellis Ave & 132nd Pl,41.66,-87.6,casual,2,99.98903388529445
Ewing Ave & 105th St,41.7,-87.54,casual,2,99.98914871372068
Ewing Ave & 106th St,41.7,-87.54,casual,2,99.98926354214692
Ewing Ave & 107th St,41.7,-87.54,casual,2,99.98937837057315
Ewing Ave & 112th St,41.69,-87.535,casual,2,99.98949319899938
Ewing Ave & Indianapolis Ave,41.71,-87.54,casual,2,99.98960802742562
Forrestville Ave & 47th St,41.81,-87.61,casual,2,99.98972285585185
Grand Ave & Lawndale Ave,41.9,-87.72,casual,2,99.98983768427809
Halsted St & 41st St,41.82,-87.65,casual,2,99.98995251270432
Halsted St & 95th St - SW,41.72,-87.64,casual,2,99.99006734113055
Hamlin Ave & Madison St,41.88,-87.72,casual,2,99.9901821695568
Harvard Ave & 103rd St,41.71,-87.63,casual,2,99.99029699798304
Houston Ave & 131st St,41.66,-87.55,casual,2,99.99041182640927
Ingleside Ave & 79th St,41.75,-87.6,casual,2,99.9905266548355
Jeffery Blvd & 83rd St,41.74,-87.58,casual,2,99.99064148326174
Kedzie Ave & 61st Pl E,41.78,-87.7,casual,2,99.99075631168797
Kenneth Ave & 63rd St,41.78,-87.73,casual,2,99.99087114011422
Kimbark Ave & 63rd St,41.78,-87.59,casual,2,99.99098596854046
King Dr & 83rd St,41.74,-87.61,casual,2,99.99110079696669
Lafayette Ave & 119th St,41.68,-87.62,casual,2,99.99121562539293
Langley Ave & 49th St,41.805,-87.61,casual,2,99.99133045381916
Lorel Ave & Chicago Ave,41.89,-87.76,casual,2,99.99144528224541
Lowe Ave & 98th St,41.72,-87.64,casual,2,99.99156011067164
Marshfield Ave & 87th St,41.74,-87.66,casual,2,99.99167493909788
Martin Luther King Dr & 44th St,41.81,-87.62,casual,2,99.99178976752411
Martin Luther King Dr & 69th St,41.77,-87.62,casual,2,99.99190459595034
Mayfield & Roosevelt Rd,41.87,-87.77,casual,2,99.99201942437658
Menard Ave & Adams Blvd,41.88,-87.77,casual,2,99.99213425280283
Mt Greenwood Library - North,41.69,-87.7,casual,2,99.99224908122906
Nordica Ave & Addison St,41.95,-87.8,casual,2,99.9923639096553
Normal Ave & 72nd St,41.76,-87.64,casual,2,99.99247873808153
Oleander Ave & Addison St,41.95,-87.82,casual,2,99.99259356650776
Ozark Ave & Addison St,41.95,-87.82,casual,2,99.992708394934
Paxton Ave & 79th St,41.75,-87.57,casual,2,99.99282322336023
Perry Ave & 108th Pl,41.7,-87.63,casual,2,99.99293805178647
Pittsburgh Ave & Irving Park,41.95,-87.83,casual,2,99.9930528802127
Pulaski Rd & 15th St,41.86,-87.73,casual,2,99.99316770863894
Pulaski Rd & 65th St,41.77,-87.72,casual,2,99.99328253706517
Pulaski Rd & Roosevelt Rd,41.87,-87.725,casual,2,99.99339736549142
Rutherford Ave & Belmont Ave,41.94,-87.79,casual,2,99.99351219391765
Sacramento Blvd & Division St,41.91,-87.7,casual,2,99.99362702234389
Stony Island & 87th St,41.74,-87.59,casual,2,99.99374185077012
Talman Ave & Pershing Rd,41.82,-87.69,casual,2,99.99385667919636
WestChi,41.9335825,-87.71355617,casual,2,99.9939715076226
Western Ave & 106th St - West,41.7,-87.68,casual,2,99.99408633604884
Western Ave & 98th St,41.715,-87.68,casual,2,99.99420116447507
10101 S Stony Island Ave,41.71,-87.58,casual,1,99.99425857868819
53rd St & Indiana Ave,41.8,-87.62,casual,1,99.9943159929013
83rd St (Avalon Park) Metra,41.74,-87.6,casual,1,99.99437340711442
Ada St & 117th St,41.68,-87.66,casual,1,99.99443082132754
Ada St & 79th St,41.75,-87.66,casual,1,99.99448823554066
Ada St & 95th St,41.72,-87.66,casual,1,99.99454564975377
Albany Ave & 103rd St,41.71,-87.7,casual,1,99.9946030639669
Ashland Ave & 76th St,41.76,-87.66,casual,1,99.99466047818002
Ashland Ave & 91st St,41.73,-87.66,casual,1,99.99471789239314
Austin Ave & Wellington Ave - midblock,41.94,-87.78,casual,1,99.99477530660626
Austin Branch Chicago Public Library,41.89,-87.77,casual,1,99.99483272081937
Avenue J & 106th St,41.7,-87.53,casual,1,99.99489013503249
Baltimore Ave & 132nd St,41.66,-87.55,casual,1,99.99494754924561
Brainerd Park,41.73,-87.65,casual,1,99.99500496345873
Calumet Ave & Garfield Blvd,41.79,-87.62,casual,1,99.99506237767184
Cicero Ave & Le Moyne St - midblock,41.91,-87.75,casual,1,99.99511979188496
City Rack - Albany Ave & 103rd St,41.71,-87.7,casual,1,99.99517720609808
Corliss Ave & 133rd St,41.65,-87.6,casual,1,99.99523462031121
Ellis Ave & Doty Ave,41.66,-87.6,casual,1,99.99529203452433
Emerald Ave & 45th St,41.81,-87.64,casual,1,99.99534944873744
Ewing Ave & 101st St,41.71,-87.54,casual,1,99.99540686295056
Ewing Ave & 95th St,41.72,-87.54,casual,1,99.99546427716368
Ewing Ave & 99th St,41.72,-87.54,casual,1,99.9955216913768
Fairfield Ave & 63rd St,41.78,-87.69,casual,1,99.99557910558991
Garfield Park Conservatory,41.89,-87.72,casual,1,99.99563651980303
Green St & 103rd St,41.71,-87.64,casual,1,99.99569393401615
Greenwood Ave & 87th St,41.74,-87.6,casual,1,99.99575134822926
Hale Ave & 111th St,41.69,-87.67,casual,1,99.99580876244238
Halsted St & 102nd St,41.71,-87.64,casual,1,99.9958661766555
Halsted St & 109th St,41.7,-87.64,casual,1,99.99592359086861
Harper Ave & 63rd St,41.78,-87.59,casual,1,99.99598100508173
Homan Ave & Lake St,41.88,-87.71,casual,1,99.99603841929485
Jeffrey Blvd & 71st St,41.77,-87.58,casual,1,99.99609583350797
Kedvale Ave & 26th St,41.84,-87.73,casual,1,99.99615324772108
Kedzie Ave & 60th St,41.79,-87.7,casual,1,99.9962106619342
Kedzie Ave & 62nd Pl,41.78,-87.7,casual,1,99.99626807614732
Kedzie Ave & 64th St - SE,41.78,-87.7,casual,1,99.99632549036043
Kedzie Ave & Walnut St,41.89,-87.71,casual,1,99.99638290457355
Keeler Ave & 55th St,41.79,-87.73,casual,1,99.99644031878667
Kenneth Ave & 63rd St E,41.78,-87.73,casual,1,99.99649773299979
Kildare Ave & Washignton Blvd,41.88,-87.73,casual,1,99.99655514721292
Kostner Ave & 16th St,41.86,-87.73,casual,1,99.99661256142603
Lafayette Ave & 87th St - NW,41.74,-87.63,casual,1,99.99666997563915
Lafayette Ave & 87th St SW,41.74,-87.63,casual,1,99.99672738985227
Laflin St & 51st St,41.8,-87.66,casual,1,99.99678480406538
Laflin St & 79th St,41.75,-87.66,casual,1,99.9968422182785
Lamon Ave & Archer Ave,41.8,-87.74,casual,1,99.99689963249162
Langley Ave & 87th St,41.74,-87.61,casual,1,99.99695704670474
Langley Ave & Oakwood Blvd,41.82,-87.61,casual,1,99.99701446091785
Lawndale & 63rd St,41.78,-87.71,casual,1,99.99707187513097
Lawrence Ave & 103rd St,41.71,-87.61,casual,1,99.99712928934409
Loomis Blvd & 83rd St,41.74,-87.66,casual,1,99.99718670355722
Mackinaw Ave & 108th St,41.7,-87.54,casual,1,99.99724411777034
Maryland Ave & 87th ST,41.74,-87.6,casual,1,99.99730153198345
Mason Ave & Roosevelt Rd,41.87,-87.77,casual,1,99.99735894619657
May St & 63rd St,41.78,-87.65,casual,1,99.99741636040969
May St & 78th St,41.75,-87.65,casual,1,99.9974737746228
Menard Ave & Agusta Blvd,41.9,-87.77,casual,1,99.99753118883592
Michele Clark Magnet High School,41.87,-87.75,casual,1,99.99758860304904
Michigan Ave & 102nd St,41.71,-87.62,casual,1,99.99764601726216
Michigan Ave & 110th St,41.69,-87.62,casual,1,99.99770343147527
Michigan Ave & 113th St,41.69,-87.62,casual,1,99.99776084568839
Michigan Ave & 96th St,41.72,-87.62,casual,1,99.99781825990152
Morgan St & 95th St,41.72,-87.65,casual,1,99.99787567411464
Newcastle Ave & Wellington Ave,41.93,-87.8,casual,1,99.99793308832776
Newland Ave & Diversey Ave,41.93,-87.8,casual,1,99.99799050254087
Oakley Ave & 50th Pl,41.8,-87.68,casual,1,99.99804791675399
Orville T Bright School,41.7,-87.56,casual,1,99.9981053309671
Park Manor Elementary School,41.77,-87.61,casual,1,99.99816274518022
Parnell Ave & 98th St,41.72,-87.64,casual,1,99.99822015939334
Pawel Bialowas - Test- PBSC charging station,45.63503432,-73.79647696,casual,1,99.99827757360646
Percy Julian HS,41.71,-87.65,casual,1,99.99833498781958
Perry Ave & 111th St,41.69,-87.63,casual,1,99.99839240203269
Piotrowski Park,41.84,-87.73,casual,1,99.99844981624581
Plainfield Ave & Irving Park Rd,41.95,-87.83,casual,1,99.99850723045893
